{
  "totalResultsCount": 648990,
  "geonames": [
    {
      "lng": "72.88261",
      "geonameId": 1275339,
      "countryCode": "IN",
      "name": "Mumbai",
      "toponymName": "Mumbai",
      "lat": "19.07283",
      "fcl": "P",
      "fcode": "PPLA"
    },
    {
      "lng": "77.23149",
      "geonameId": 1273294,
      "countryCode": "IN",
      "name": "Delhi",
      "toponymName": "Delhi",
      "lat": "28.65195",
      "fcl": "P",
      "fcode": "PPLA"
    },
    {
      "lng": "88.36304",
      "geonameId": 1275004,
      "countryCode": "IN",
      "name": "Kolkata",
      "toponymName": "Kolkata",
      "lat": "22.56263",
      "fcl": "P",
      "fcode": "PPLA"
    },
    {
      "lng": "77.59369",
      "geonameId": 1277333,
      "countryCode": "IN",
      "name": "Bengaluru",
      "toponymName": "Bengaluru",
      "lat": "12.97194",
      "fcl": "P",
      "fcode": "PPLA"
    },
    {
      "lng": "80.27847",
      "geonameId": 1264527,
      "countryCode": "IN",
      "name": "Chennai",
      "toponymName": "Chennai",
      "lat": "13.08784",
      "fcl": "P",
      "fcode": "PPLA"
    },
    {
      "lng": "72.58727",
      "geonameId": 1279233,
      "countryCode": "IN",
      "name": "Ahmedabad",
      "toponymName": "Ahmedabad",
      "lat": "23.02579",
      "fcl": "P",
      "fcode": "PPL"
    },
    {
      "lng": "78.45636",
      "geonameId": 1269843,
      "countryCode": "IN",
      "name": "Hyderabad",
      "toponymName": "Hyderabad",
      "lat": "17.38405",
      "fcl": "P",
      "fcode": "PPLA"
    },
    {
      "lng": "76.95374",
      "geonameId": 8659036,
      "countryCode": "IN",
      "name": "Marathwada",
      "toponymName": "Marathwada Region",
      "lat": "19.28911",
      "fcl": "L",
      "fcode": "RGN"
    },
    {
      "lng": "77.22445",
      "geonameId": 1261481,
      "countryCode": "IN",
      "name": "New Delhi",
      "toponymName": "New Delhi",
      "lat": "28.63576",
      "fcl": "P",
      "fcode": "PPLC"
    },
    {
      "lng": "73.85535",
      "geonameId": 1259229,
      "countryCode": "IN",
      "name": "Pune",
      "toponymName": "Pune",
      "lat": "18.51957",
      "fcl": "P",
      "fcode": "PPL"
    },
    {
      "lng": "72.83023",
      "geonameId": 1255364,
      "countryCode": "IN",
      "name": "Surat",
      "toponymName": "Surat",
      "lat": "21.19594",
      "fcl": "P",
      "fcode": "PPL"
    },
    {
      "lng": "74.87534",
      "geonameId": 1278710,
      "countryCode": "IN",
      "name": "Amritsar",
      "toponymName": "Amritsar",
      "lat": "31.62234",
      "fcl": "P",
      "fcode": "PPL"
    },
    {
      "lng": "76.7884",
      "geonameId": 1274746,
      "countryCode": "IN",
      "name": "Chandigarh",
      "toponymName": "Chandīgarh",
      "lat": "30.73629",
      "fcl": "P",
      "fcode": "PPLA"
    },
    {
      "lng": "85.83385",
      "geonameId": 1275817,
      "countryCode": "IN",
      "name": "Bhubaneswar",
      "toponymName": "Bhubaneshwar",
      "lat": "20.27241",
      "fcl": "P",
      "fcode": "PPLA"
    },
    {
      "lng": "77.40289",
      "geonameId": 1275841,
      "countryCode": "IN",
      "name": "Bhopal",
      "toponymName": "Bhopāl",
      "lat": "23.25469",
      "fcl": "P",
      "fcode": "PPLA"
    },
    {
      "lng": "80.92313",
      "geonameId": 1264733,
      "countryCode": "IN",
      "name": "Lucknow",
      "toponymName": "Lucknow",
      "lat": "26.83928",
      "fcl": "P",
      "fcode": "PPLA"
    },
    {
      "lng": "85.13563",
      "geonameId": 1260086,
      "countryCode": "IN",
      "name": "Patna",
      "toponymName": "Patna",
      "lat": "25.59408",
      "fcl": "P",
      "fcode": "PPLA"
    },
    {
      "lng": "72.9",
      "geonameId": 1257592,
      "countryCode": "IN",
      "name": "Salsette Island",
      "toponymName": "Salsette Island",
      "lat": "19.2",
      "fcl": "T",
      "fcode": "ISL"
    },
    {
      "lng": "85.3094",
      "geonameId": 1258526,
      "countryCode": "IN",
      "name": "Ranchi",
      "toponymName": "Ranchi",
      "lat": "23.34316",
      "fcl": "P",
      "fcode": "PPLA"
    },
    {
      "lng": "81.63333",
      "geonameId": 1258980,
      "countryCode": "IN",
      "name": "Raipur",
      "toponymName": "Raipur",
      "lat": "21.23333",
      "fcl": "P",
      "fcode": "PPLA"
    },
    {
      "lng": "80.34975",
      "geonameId": 1267995,
      "countryCode": "IN",
      "name": "Kanpur",
      "toponymName": "Kanpur",
      "lat": "26.46523",
      "fcl": "P",
      "fcode": "PPL"
    },
    {
      "lng": "75.78781",
      "geonameId": 1269515,
      "countryCode": "IN",
      "name": "Jaipur",
      "toponymName": "Jaipur",
      "lat": "26.91962",
      "fcl": "P",
      "fcode": "PPLA"
    },
    {
      "lng": "76.94924",
      "geonameId": 1254163,
      "countryCode": "IN",
      "name": "Trivandrum",
      "toponymName": "Thiruvananthapuram",
      "lat": "8.4855",
      "fcl": "P",
      "fcode": "PPLA"
    },
    {
      "lng": "74.80555",
      "geonameId": 1255634,
      "countryCode": "IN",
      "name": "Srinagar",
      "toponymName": "Srinagar",
      "lat": "34.08565",
      "fcl": "P",
      "fcode": "PPLA"
    },
    {
      "lng": "78.66211",
      "geonameId": 7729895,
      "name": "Southern Asia",
      "toponymName": "Southern Asia",
      "lat": "21.28937",
      "fcl": "L",
      "fcode": "RGN"
    },
    {
      "lng": "76.97021",
      "geonameId": 6269134,
      "countryCode": "IN",
      "name": "Southern Asia",
      "toponymName": "Indian Subcontinent",
      "lat": "22.20775",
      "fcl": "T",
      "fcode": "PEN"
    },
    {
      "lng": "77.07733",
      "geonameId": 9972750,
      "countryCode": "IN",
      "name": "NCR",
      "toponymName": "National Capital Region",
      "lat": "28.66047",
      "fcl": "L",
      "fcode": "AREA"
    },
    {
      "lng": "79.97077",
      "geonameId": 1261991,
      "countryCode": "IN",
      "name": "Nanda Devi",
      "toponymName": "Nanda Devi",
      "lat": "30.37584",
      "fcl": "T",
      "fcode": "MT"
    },
    {
      "lng": "82",
      "geonameId": 1444364,
      "countryCode": "IN",
      "name": "Chhattisgarh",
      "toponymName": "State of Chhattīsgarh",
      "lat": "21.5",
      "fcl": "A",
      "fcode": "ADM1"
    },
    {
      "lng": "85.5",
      "geonameId": 1444365,
      "countryCode": "IN",
      "name": "Jharkhand",
      "toponymName": "State of Jhārkhand",
      "lat": "23.75",
      "fcl": "A",
      "fcode": "ADM1"
    },
    {
      "lng": "79.25",
      "geonameId": 1444366,
      "countryCode": "IN",
      "name": "Uttarakhand",
      "toponymName": "State of Uttarākhand",
      "lat": "30.25",
      "fcl": "A",
      "fcode": "ADM1"
    },
    {
      "lng": "75.34226",
      "geonameId": 1278149,
      "countryCode": "IN",
      "name": "Aurangabad",
      "toponymName": "Aurangabad",
      "lat": "19.87757",
      "fcl": "P",
      "fcode": "PPLA2"
    },
    {
      "lng": "93",
      "geonameId": 1278253,
      "countryCode": "IN",
      "name": "Assam",
      "toponymName": "Assam",
      "lat": "26",
      "fcl": "A",
      "fcode": "ADM1"
    },
    {
      "lng": "79.75",
      "geonameId": 1278629,
      "countryCode": "IN",
      "name": "Andhra Pradesh",
      "toponymName": "State of Andhra Pradesh",
      "lat": "15.83333",
      "fcl": "A",
      "fcode": "ADM1"
    },
    {
      "lng": "92.67517",
      "geonameId": 1278647,
      "countryCode": "IN",
      "name": "Andaman and Nicobar",
      "toponymName": "Union Territory of Andaman and Nicobar Islands",
      "lat": "11.70065",
      "fcl": "A",
      "fcode": "ADM1"
    },
    {
      "lng": "76.625",
      "geonameId": 1278946,
      "countryCode": "IN",
      "name": "Alwar",
      "toponymName": "Alwar",
      "lat": "27.56246",
      "fcl": "P",
      "fcode": "PPL"
    },
    {
      "lng": "81.84322",
      "geonameId": 1278994,
      "countryCode": "IN",
      "name": "Prayagraj",
      "toponymName": "Allahābād",
      "lat": "25.44478",
      "fcl": "P",
      "fcode": "PPL"
    },
    {
      "lng": "78.07464",
      "geonameId": 1279017,
      "countryCode": "IN",
      "name": "Aligarh",
      "toponymName": "Alīgarh",
      "lat": "27.88145",
      "fcl": "P",
      "fcode": "PPL"
    },
    {
      "lng": "74.63867",
      "geonameId": 1279159,
      "countryCode": "IN",
      "name": "Ajmer",
      "toponymName": "Ajmer",
      "lat": "26.4521",
      "fcl": "P",
      "fcode": "PPL"
    },
    {
      "lng": "92.71791",
      "geonameId": 1279186,
      "countryCode": "IN",
      "name": "Aizawl",
      "toponymName": "Aizawl",
      "lat": "23.72894",
      "fcl": "P",
      "fcode": "PPLA"
    },
    {
      "lng": "78.01667",
      "geonameId": 1279259,
      "countryCode": "IN",
      "name": "Agra",
      "toponymName": "Agra",
      "lat": "27.18333",
      "fcl": "P",
      "fcode": "PPLA2"
    },
    {
      "lng": "91.27939",
      "geonameId": 1279290,
      "countryCode": "IN",
      "name": "Agartala",
      "toponymName": "Agartala",
      "lat": "23.83605",
      "fcl": "P",
      "fcode": "PPLA"
    },
    {
      "lng": "85.75",
      "geonameId": 1275715,
      "countryCode": "IN",
      "name": "Bihar",
      "toponymName": "State of Bihar",
      "lat": "25.75",
      "fcl": "A",
      "fcode": "ADM1"
    },
    {
      "lng": "73.05881",
      "geonameId": 1275901,
      "countryCode": "IN",
      "name": "Bhiwandi",
      "toponymName": "Bhiwandi",
      "lat": "19.30023",
      "fcl": "P",
      "fcode": "PPL"
    },
    {
      "lng": "81.4285",
      "geonameId": 1275971,
      "countryCode": "IN",
      "name": "Bhilai",
      "toponymName": "Bhilai",
      "lat": "21.20919",
      "fcl": "P",
      "fcode": "PPL"
    },
    {
      "lng": "72.15331",
      "geonameId": 1276032,
      "countryCode": "IN",
      "name": "Bhavnagar",
      "toponymName": "Bhavnagar",
      "lat": "21.76287",
      "fcl": "P",
      "fcode": "PPL"
    },
    {
      "lng": "74.50447",
      "geonameId": 1276533,
      "countryCode": "IN",
      "name": "Belgaum",
      "toponymName": "Belgaum",
      "lat": "15.85212",
      "fcl": "P",
      "fcode": "PPL"
    },
    {
      "lng": "79.43167",
      "geonameId": 1277013,
      "countryCode": "IN",
      "name": "Bareilly",
      "toponymName": "Bareilly",
      "lat": "28.36678",
      "fcl": "P",
      "fcode": "PPL"
    },
    {
      "lng": "74.85603",
      "geonameId": 1263780,
      "countryCode": "IN",
      "name": "Mangalore",
      "toponymName": "Mangalore",
      "lat": "12.91723",
      "fcl": "P",
      "fcode": "PPL"
    },
    {
      "lng": "76",
      "geonameId": 1264418,
      "countryCode": "IN",
      "name": "Maharashtra",
      "toponymName": "State of Mahārāshtra",
      "lat": "19.5",
      "fcl": "A",
      "fcode": "ADM1"
    },
    {
      "lng": "78.11953",
      "geonameId": 1264521,
      "countryCode": "IN",
      "name": "Madurai",
      "toponymName": "Madurai",
      "lat": "9.919",
      "fcl": "P",
      "fcode": "PPLA2"
    },
    {
      "lng": "78.5",
      "geonameId": 1264542,
      "countryCode": "IN",
      "name": "Madhya Pradesh",
      "toponymName": "Madhya Pradesh",
      "lat": "23.5",
      "fcl": "A",
      "fcode": "ADM1"
    },
    {
      "lng": "75.85379",
      "geonameId": 1264728,
      "countryCode": "IN",
      "name": "Ludhiana",
      "toponymName": "Ludhiāna",
      "lat": "30.91204",
      "fcl": "P",
      "fcode": "PPL"
    },
    {
      "lng": "72.28665",
      "geonameId": 1265206,
      "countryCode": "IN",
      "name": "Lakshadweep",
      "toponymName": "Union Territory of Lakshadweep",
      "lat": "10.93896",
      "fcl": "A",
      "fcode": "ADM1"
    },
    {
      "lng": "75.7804",
      "geonameId": 1265873,
      "countryCode": "IN",
      "name": "Kozhikode",
      "toponymName": "Kozhikode",
      "lat": "11.24802",
      "fcl": "P",
      "fcode": "PPLA2"
    },
    {
      "lng": "75.83907",
      "geonameId": 1266049,
      "countryCode": "IN",
      "name": "Kota",
      "toponymName": "Kota",
      "lat": "25.18254",
      "fcl": "P",
      "fcode": "PPL"
    },
    {
      "lng": "94.11099",
      "geonameId": 1266366,
      "countryCode": "IN",
      "name": "Kohima",
      "toponymName": "Kohīma",
      "lat": "25.67467",
      "fcl": "P",
      "fcode": "PPLA"
    },
    {
      "lng": "73.82624",
      "geonameId": 1260607,
      "countryCode": "IN",
      "name": "Panjim",
      "toponymName": "Panaji",
      "lat": "15.49574",
      "fcl": "P",
      "fcode": "PPLA"
    },
    {
      "lng": "84.41667",
      "geonameId": 1261029,
      "countryCode": "IN",
      "name": "Odisha",
      "toponymName": "State of Odisha",
      "lat": "20.5",
      "fcl": "A",
      "fcode": "ADM1"
    },
    {
      "lng": "79.98697",
      "geonameId": 1261529,
      "countryCode": "IN",
      "name": "Nellore",
      "toponymName": "Nellore",
      "lat": "14.44992",
      "fcl": "P",
      "fcode": "PPL"
    },
    {
      "lng": "73.79096",
      "geonameId": 1261731,
      "countryCode": "IN",
      "name": "Nashik",
      "toponymName": "Nashik",
      "lat": "19.99727",
      "fcl": "P",
      "fcode": "PPLA2"
    },
    {
      "lng": "77.31497",
      "geonameId": 1261977,
      "countryCode": "IN",
      "name": "Nanded",
      "toponymName": "Nanded",
      "lat": "19.16023",
      "fcl": "P",
      "fcode": "PPL"
    },
    {
      "lng": "79.08491",
      "geonameId": 1262180,
      "countryCode": "IN",
      "name": "Nagpur",
      "toponymName": "Nagpur",
      "lat": "21.14631",
      "fcl": "P",
      "fcode": "PPLA2"
    },
    {
      "lng": "76.63925",
      "geonameId": 1262321,
      "countryCode": "IN",
      "name": "Mysore",
      "toponymName": "Mysore",
      "lat": "12.29791",
      "fcl": "P",
      "fcode": "PPLA2"
    },
    {
      "lng": "77.70636",
      "geonameId": 1263214,
      "countryCode": "IN",
      "name": "Meerut",
      "toponymName": "Meerut",
      "lat": "28.98002",
      "fcl": "P",
      "fcode": "PPL"
    },
    {
      "lng": "77.16662",
      "geonameId": 1256237,
      "countryCode": "IN",
      "name": "Shimla",
      "toponymName": "Shimla",
      "lat": "31.10442",
      "fcl": "P",
      "fcode": "PPLA"
    },
    {
      "lng": "75.91044",
      "geonameId": 1256436,
      "countryCode": "IN",
      "name": "Solapur",
      "toponymName": "Solāpur",
      "lat": "17.67152",
      "fcl": "P",
      "fcode": "PPL"
    },
    {
      "lng": "91.88313",
      "geonameId": 1256523,
      "countryCode": "IN",
      "name": "Shillong",
      "toponymName": "Shillong",
      "lat": "25.56892",
      "fcl": "P",
      "fcode": "PPLA"
    },
    {
      "lng": "78.15538",
      "geonameId": 1257629,
      "countryCode": "IN",
      "name": "Salem",
      "toponymName": "Salem",
      "lat": "11.65376",
      "fcl": "P",
      "fcode": "PPL"
    },
    {
      "lng": "84.86414",
      "geonameId": 1258315,
      "countryCode": "IN",
      "name": "Raurkela",
      "toponymName": "Raurkela",
      "lat": "22.22496",
      "fcl": "P",
      "fcode": "PPL"
    },
    {
      "lng": "70.79322",
      "geonameId": 1258847,
      "countryCode": "IN",
      "name": "Rajkot",
      "toponymName": "Rājkot",
      "lat": "22.29161",
      "fcl": "P",
      "fcode": "PPL"
    },
    {
      "lng": "73.83333",
      "geonameId": 1258899,
      "countryCode": "IN",
      "name": "Rajasthan",
      "toponymName": "State of Rājasthān",
      "lat": "26.58333",
      "fcl": "A",
      "fcode": "ADM1"
    },
    {
      "lng": "75.41667",
      "geonameId": 1259223,
      "countryCode": "IN",
      "name": "Punjab",
      "toponymName": "State of Punjab",
      "lat": "30.91667",
      "fcl": "A",
      "fcode": "ADM1"
    },
    {
      "lng": "92.74635",
      "geonameId": 1259385,
      "countryCode": "IN",
      "name": "Port Blair",
      "toponymName": "Port Blair",
      "lat": "11.66613",
      "fcl": "P",
      "fcode": "PPLA"
    },
    {
      "lng": "79.81667",
      "geonameId": 1259424,
      "countryCode": "IN",
      "name": "Puducherry",
      "toponymName": "Union Territory of Puducherry",
      "lat": "11.93333",
      "fcl": "A",
      "fcode": "ADM1"
    },
    {
      "lng": "79.82979",
      "geonameId": 1259425,
      "countryCode": "IN",
      "name": "Puducherry",
      "toponymName": "Puducherry",
      "lat": "11.93381",
      "fcl": "P",
      "fcode": "PPLA"
    },
    {
      "lng": "76.83757",
      "geonameId": 1270752,
      "countryCode": "IN",
      "name": "Gulbarga",
      "toponymName": "Gulbarga",
      "lat": "17.33583",
      "fcl": "P",
      "fcode": "PPL"
    },
    {
      "lng": "71.75",
      "geonameId": 1270770,
      "countryCode": "IN",
      "name": "Gujarat",
      "toponymName": "State of Gujarāt",
      "lat": "23",
      "fcl": "A",
      "fcode": "ADM1"
    },
    {
      "lng": "83.36889",
      "geonameId": 1270927,
      "countryCode": "IN",
      "name": "Gorakhpur",
      "toponymName": "Gorakhpur",
      "lat": "26.76628",
      "fcl": "P",
      "fcode": "PPL"
    },
    {
      "lng": "91.7458",
      "geonameId": 1271476,
      "countryCode": "IN",
      "name": "Guwahati",
      "toponymName": "Guwahati",
      "lat": "26.1844",
      "fcl": "P",
      "fcode": "PPL"
    },
    {
      "lng": "72.68333",
      "geonameId": 1271715,
      "countryCode": "IN",
      "name": "Gandhinagar",
      "toponymName": "Gandhinagar",
      "lat": "23.21667",
      "fcl": "P",
      "fcode": "PPLA"
    },
    {
      "lng": "77.31316",
      "geonameId": 1271951,
      "countryCode": "IN",
      "name": "Faridabad",
      "toponymName": "Faridabad",
      "lat": "28.41124",
      "fcl": "P",
      "fcode": "PPL"
    },
    {
      "lng": "87.30801",
      "geonameId": 1272175,
      "countryCode": "IN",
      "name": "Durgapur",
      "toponymName": "Durgapur",
      "lat": "23.51583",
      "fcl": "P",
      "fcode": "PPL"
    },
    {
      "lng": "85.87927",
      "geonameId": 1273780,
      "countryCode": "IN",
      "name": "Cuttack",
      "toponymName": "Cuttack",
      "lat": "20.46497",
      "fcl": "P",
      "fcode": "PPL"
    },
    {
      "lng": "76.96612",
      "geonameId": 1273865,
      "countryCode": "IN",
      "name": "Coimbatore",
      "toponymName": "Coimbatore",
      "lat": "11.00555",
      "fcl": "P",
      "fcode": "PPL"
    },
    {
      "lng": "76.26022",
      "geonameId": 1273874,
      "countryCode": "IN",
      "name": "Kochi",
      "toponymName": "Cochin",
      "lat": "9.93988",
      "fcl": "P",
      "fcode": "PPL"
    },
    {
      "lng": "76.5",
      "geonameId": 1267254,
      "countryCode": "IN",
      "name": "Kerala",
      "toponymName": "State of Kerala",
      "lat": "10.41667",
      "fcl": "A",
      "fcode": "ADM1"
    },
    {
      "lng": "75.83333",
      "geonameId": 1267701,
      "countryCode": "IN",
      "name": "Karnataka",
      "toponymName": "State of Karnataka",
      "lat": "14.66667",
      "fcl": "A",
      "fcode": "ADM1"
    },
    {
      "lng": "79.59337",
      "geonameId": 1268235,
      "countryCode": "IN",
      "name": "Kamet",
      "toponymName": "Kāmet",
      "lat": "30.91982",
      "fcl": "T",
      "fcode": "MT"
    },
    {
      "lng": "75.57917",
      "geonameId": 1268782,
      "countryCode": "IN",
      "name": "Jalandhar",
      "toponymName": "Jalandhar",
      "lat": "31.32556",
      "fcl": "P",
      "fcode": "PPL"
    },
    {
      "lng": "73.00594",
      "geonameId": 1268865,
      "countryCode": "IN",
      "name": "Jodhpur",
      "toponymName": "Jodhpur",
      "lat": "26.26841",
      "fcl": "P",
      "fcode": "PPL"
    },
    {
      "lng": "86.18545",
      "geonameId": 1269300,
      "countryCode": "IN",
      "name": "Jamshedpur",
      "toponymName": "Jamshedpur",
      "lat": "22.80278",
      "fcl": "P",
      "fcode": "PPL"
    },
    {
      "lng": "75.56602",
      "geonameId": 1269407,
      "countryCode": "IN",
      "name": "Jalgaon",
      "toponymName": "Jalgaon",
      "lat": "21.00292",
      "fcl": "P",
      "fcode": "PPL"
    },
    {
      "lng": "79.95006",
      "geonameId": 1269633,
      "countryCode": "IN",
      "name": "Jabalpur",
      "toponymName": "Jabalpur",
      "lat": "23.16697",
      "fcl": "P",
      "fcode": "PPL"
    },
    {
      "lng": "75.8333",
      "geonameId": 1269743,
      "countryCode": "IN",
      "name": "Indore",
      "toponymName": "Indore",
      "lat": "22.71792",
      "fcl": "P",
      "fcode": "PPL"
    },
    {
      "lng": "93.9442",
      "geonameId": 1269771,
      "countryCode": "IN",
      "name": "Imphal",
      "toponymName": "Imphāl",
      "lat": "24.80805",
      "fcl": "P",
      "fcode": "PPLA"
    },
    {
      "lng": "77.25",
      "geonameId": 1270101,
      "countryCode": "IN",
      "name": "Himachal Pradesh",
      "toponymName": "State of Himāchal Pradesh",
      "lat": "31.91667",
      "fcl": "A",
      "fcode": "ADM1"
    },
    {
      "lng": "76.33333",
      "geonameId": 1270260,
      "countryCode": "IN",
      "name": "Haryana",
      "toponymName": "State of Haryāna",
      "lat": "29.25",
      "fcl": "A",
      "fcode": "ADM1"
    },
    {
      "lng": "88.31857",
      "geonameId": 1270396,
      "countryCode": "IN",
      "name": "Howrah",
      "toponymName": "Hāora",
      "lat": "22.57688",
      "fcl": "P",
      "fcode": "PPL"
    },
    {
      "lng": "88",
      "geonameId": 1252881,
      "countryCode": "IN",
      "name": "West Bengal",
      "toponymName": "West Bengal",
      "lat": "24",
      "fcl": "A",
      "fcode": "ADM1"
    },
    {
      "lng": "79.58333",
      "geonameId": 1252948,
      "countryCode": "IN",
      "name": "Warangal",
      "toponymName": "Warangal",
      "lat": "18",
      "fcl": "P",
      "fcode": "PPLA2"
    },
    {
      "lng": "83.20161",
      "geonameId": 1253102,
      "countryCode": "IN",
      "name": "Vizag",
      "toponymName": "Visakhapatnam",
      "lat": "17.68009",
      "fcl": "P",
      "fcode": "PPLA2"
    },
    {
      "lng": "80.6466",
      "geonameId": 1253184,
      "countryCode": "IN",
      "name": "Vijayawada",
      "toponymName": "Vijayawada",
      "lat": "16.50745",
      "fcl": "P",
      "fcode": "PPL"
    },
    {
      "lng": "83.01041",
      "geonameId": 1253405,
      "countryCode": "IN",
      "name": "Varanasi",
      "toponymName": "Varanasi",
      "lat": "25.31668",
      "fcl": "P",
      "fcode": "PPL"
    },
    {
      "lng": "73.20812",
      "geonameId": 1253573,
      "countryCode": "IN",
      "name": "Vadodara",
      "toponymName": "Vadodara",
      "lat": "22.29941",
      "fcl": "P",
      "fcode": "PPL"
    },
    {
      "lng": "80.75",
      "geonameId": 1253626,
      "countryCode": "IN",
      "name": "Uttar Pradesh",
      "toponymName": "Uttar Pradesh",
      "lat": "27.25",
      "fcl": "A",
      "fcode": "ADM1"
    },
    {
      "lng": "75.77643",
      "geonameId": 1253914,
      "countryCode": "IN",
      "name": "Ujjain",
      "toponymName": "Ujjain",
      "lat": "23.18239",
      "fcl": "P",
      "fcode": "PPL"
    },
    {
      "lng": "77.6838",
      "geonameId": 1254361,
      "countryCode": "IN",
      "name": "Tirunelveli",
      "toponymName": "Tirunelveli",
      "lat": "8.72742",
      "fcl": "P",
      "fcode": "PPLA2"
    },
    {
      "lng": "78.69651",
      "geonameId": 1254388,
      "countryCode": "IN",
      "name": "Tiruchi",
      "toponymName": "Tiruchirappalli",
      "lat": "10.8155",
      "fcl": "P",
      "fcode": "PPL"
    },
    {
      "lng": "72.96355",
      "geonameId": 1254661,
      "countryCode": "IN",
      "name": "Thāne",
      "toponymName": "Thāne",
      "lat": "19.19704",
      "fcl": "P",
      "fcode": "PPL"
    },
    {
      "lng": "79.08333",
      "geonameId": 1254788,
      "countryCode": "IN",
      "name": "Telangana",
      "toponymName": "State of Telangāna",
      "lat": "17.83333",
      "fcl": "A",
      "fcode": "ADM1"
    },
    {
      "lng": "78.33333",
      "geonameId": 1255053,
      "countryCode": "IN",
      "name": "Tamil Nadu",
      "toponymName": "State of Tamil Nādu",
      "lat": "11",
      "fcl": "A",
      "fcode": "ADM1"
    },
    {
      "lng": "73.01582",
      "geonameId": 6619347,
      "countryCode": "IN",
      "name": "Navi Mumbai",
      "toponymName": "Navi Mumbai",
      "lat": "19.03681",
      "fcl": "P",
      "fcode": "PPLX"
    },
    {
      "lng": "77.34688",
      "geonameId": 12096464,
      "countryCode": "IN",
      "name": "Ladakh",
      "toponymName": "Ladakh",
      "lat": "34.09712",
      "fcl": "A",
      "fcode": "ADM1"
    },
    {
      "lng": "86.98333",
      "geonameId": 1278314,
      "countryCode": "IN",
      "name": "Asansol",
      "toponymName": "Āsansol",
      "lat": "23.68333",
      "fcl": "P",
      "fcode": "PPLA2"
    },
    {
      "lng": "84.66335",
      "geonameId": 1278483,
      "countryCode": "IN",
      "name": "Arrah",
      "toponymName": "Arrah",
      "lat": "25.55629",
      "fcl": "P",
      "fcode": "PPL"
    },
    {
      "lng": "77.60813",
      "geonameId": 1278672,
      "countryCode": "IN",
      "name": "Anantapur",
      "toponymName": "Anantapur",
      "lat": "14.67784",
      "fcl": "P",
      "fcode": "PPL"
    },
    {
      "lng": "76.9981",
      "geonameId": 1279105,
      "countryCode": "IN",
      "name": "Akola",
      "toponymName": "Akola",
      "lat": "20.70957",
      "fcl": "P",
      "fcode": "PPL"
    },
    {
      "lng": "74.73843",
      "geonameId": 1279228,
      "countryCode": "IN",
      "name": "Ahmednagar",
      "toponymName": "Ahmadnagar",
      "lat": "19.09457",
      "fcl": "P",
      "fcode": "PPL"
    },
    {
      "lng": "77.51006",
      "geonameId": 1279390,
      "countryCode": "IN",
      "name": "Achalpur",
      "toponymName": "Achalpur",
      "lat": "21.25665",
      "fcl": "P",
      "fcode": "PPL"
    },
    {
      "lng": "74.19552",
      "geonameId": 1279403,
      "countryCode": "IN",
      "name": "Abohar",
      "toponymName": "Abohar",
      "lat": "30.14453",
      "fcl": "P",
      "fcode": "PPL"
    },
    {
      "lng": "84.74709",
      "geonameId": 1274353,
      "countryCode": "IN",
      "name": "Chāpra",
      "toponymName": "Chāpra",
      "lat": "25.78031",
      "fcl": "P",
      "fcode": "PPL"
    },
    {
      "lng": "79.29523",
      "geonameId": 1274693,
      "countryCode": "IN",
      "name": "Chānda",
      "toponymName": "Chānda",
      "lat": "19.95076",
      "fcl": "P",
      "fcode": "PPL"
    },
    {
      "lng": "88.36796",
      "geonameId": 1274784,
      "countryCode": "IN",
      "name": "Chandannagar",
      "toponymName": "Chandannagar",
      "lat": "22.86225",
      "fcl": "P",
      "fcode": "PPL"
    },
    {
      "lng": "75.35763",
      "geonameId": 1274987,
      "countryCode": "IN",
      "name": "Kannur",
      "toponymName": "Kannur",
      "lat": "11.86752",
      "fcl": "P",
      "fcode": "PPL"
    },
    {
      "lng": "77.85773",
      "geonameId": 1275120,
      "countryCode": "IN",
      "name": "Bulandshahr",
      "toponymName": "Bulandshahr",
      "lat": "28.40392",
      "fcl": "P",
      "fcode": "PPL"
    },
    {
      "lng": "79.12668",
      "geonameId": 1275163,
      "countryCode": "IN",
      "name": "Budaun",
      "toponymName": "Budaun",
      "lat": "28.03811",
      "fcl": "P",
      "fcode": "PPL"
    },
    {
      "lng": "84.7929",
      "geonameId": 1275198,
      "countryCode": "IN",
      "name": "Brahmapur",
      "toponymName": "Brahmapur",
      "lat": "19.31151",
      "fcl": "P",
      "fcode": "PPL"
    },
    {
      "lng": "73.31495",
      "geonameId": 1275665,
      "countryCode": "IN",
      "name": "Bikaner",
      "toponymName": "Bīkaner",
      "lat": "28.01762",
      "fcl": "P",
      "fcode": "PPL"
    },
    {
      "lng": "75.71537",
      "geonameId": 1275701,
      "countryCode": "IN",
      "name": "Bijapur",
      "toponymName": "Bijapur",
      "lat": "16.82442",
      "fcl": "P",
      "fcode": "PPL"
    },
    {
      "lng": "77.51524",
      "geonameId": 1275738,
      "countryCode": "IN",
      "name": "Bidar",
      "toponymName": "Bīdar",
      "lat": "17.90802",
      "fcl": "P",
      "fcode": "PPL"
    },
    {
      "lng": "69.66928",
      "geonameId": 1275812,
      "countryCode": "IN",
      "name": "Bhuj",
      "toponymName": "Bhuj",
      "lat": "23.25397",
      "fcl": "P",
      "fcode": "PPL"
    },
    {
      "lng": "74.93893",
      "geonameId": 1276070,
      "countryCode": "IN",
      "name": "Bathinda",
      "toponymName": "Bathinda",
      "lat": "30.20747",
      "fcl": "P",
      "fcode": "PPL"
    },
    {
      "lng": "77.49009",
      "geonameId": 1276128,
      "countryCode": "IN",
      "name": "Bharatpur",
      "toponymName": "Bharatpur",
      "lat": "27.21731",
      "fcl": "P",
      "fcode": "PPL"
    },
    {
      "lng": "84.50311",
      "geonameId": 1276393,
      "countryCode": "IN",
      "name": "Bettiah",
      "toponymName": "Bettiah",
      "lat": "26.80229",
      "fcl": "P",
      "fcode": "PPL"
    },
    {
      "lng": "76.92398",
      "geonameId": 1276509,
      "countryCode": "IN",
      "name": "Bellary",
      "toponymName": "Bellary",
      "lat": "15.14205",
      "fcl": "P",
      "fcode": "PPL"
    },
    {
      "lng": "86.13389",
      "geonameId": 1276609,
      "countryCode": "IN",
      "name": "Begusarai",
      "toponymName": "Begusarai",
      "lat": "25.41853",
      "fcl": "P",
      "fcode": "PPL"
    },
    {
      "lng": "86.93348",
      "geonameId": 1277599,
      "countryCode": "IN",
      "name": "Balasore",
      "toponymName": "Balasore",
      "lat": "21.49266",
      "fcl": "P",
      "fcode": "PPL"
    },
    {
      "lng": "88.25155",
      "geonameId": 1277820,
      "countryCode": "IN",
      "name": "Baharampur",
      "toponymName": "Baharampur",
      "lat": "24.10473",
      "fcl": "P",
      "fcode": "PPL"
    },
    {
      "lng": "82.2047",
      "geonameId": 1278094,
      "countryCode": "IN",
      "name": "Ayodhya",
      "toponymName": "Ajodhya",
      "lat": "26.79909",
      "fcl": "P",
      "fcode": "PPL"
    },
    {
      "lng": "83.56111",
      "geonameId": 1263311,
      "countryCode": "IN",
      "name": "Mau",
      "toponymName": "Mau",
      "lat": "25.94167",
      "fcl": "P",
      "fcode": "PPL"
    },
    {
      "lng": "77.67215",
      "geonameId": 1263364,
      "countryCode": "IN",
      "name": "Mathura",
      "toponymName": "Mathura",
      "lat": "27.5035",
      "fcl": "P",
      "fcode": "PPL"
    },
    {
      "lng": "94",
      "geonameId": 1263706,
      "countryCode": "IN",
      "name": "Manipur",
      "toponymName": "Manipur",
      "lat": "25",
      "fcl": "A",
      "fcode": "ADM1"
    },
    {
      "lng": "76.89746",
      "geonameId": 1263814,
      "countryCode": "IN",
      "name": "Mandya",
      "toponymName": "Mandya",
      "lat": "12.5223",
      "fcl": "P",
      "fcode": "PPL"
    },
    {
      "lng": "75.06986",
      "geonameId": 1263834,
      "countryCode": "IN",
      "name": "Mandsaur",
      "toponymName": "Mandsaur",
      "lat": "24.07184",
      "fcl": "P",
      "fcode": "PPL"
    },
    {
      "lng": "78.50288",
      "geonameId": 1264621,
      "countryCode": "IN",
      "name": "Madanapalle",
      "toponymName": "Madanapalle",
      "lat": "13.5503",
      "fcl": "P",
      "fcode": "PPL"
    },
    {
      "lng": "76.56784",
      "geonameId": 1265014,
      "countryCode": "IN",
      "name": "Latur",
      "toponymName": "Latur",
      "lat": "18.39721",
      "fcl": "P",
      "fcode": "PPLA3"
    },
    {
      "lng": "78.41915",
      "geonameId": 1265157,
      "countryCode": "IN",
      "name": "Lalitpur",
      "toponymName": "Lalitpur",
      "lat": "24.69007",
      "fcl": "P",
      "fcode": "PPL"
    },
    {
      "lng": "78.03602",
      "geonameId": 1265491,
      "countryCode": "IN",
      "name": "Kurnool",
      "toponymName": "Kurnool",
      "lat": "15.82887",
      "fcl": "P",
      "fcode": "PPL"
    },
    {
      "lng": "79.39124",
      "geonameId": 1265683,
      "countryCode": "IN",
      "name": "Kumbakonam",
      "toponymName": "Kumbakonam",
      "lat": "10.96209",
      "fcl": "P",
      "fcode": "PPL"
    },
    {
      "lng": "88.49073",
      "geonameId": 1265859,
      "countryCode": "IN",
      "name": "Krishnanagar",
      "toponymName": "Krishnanagar",
      "lat": "23.40576",
      "fcl": "P",
      "fcode": "PPL"
    },
    {
      "lng": "74.85397",
      "geonameId": 1266486,
      "countryCode": "IN",
      "name": "Kishangarh",
      "toponymName": "Kishangarh",
      "lat": "26.59006",
      "fcl": "P",
      "fcode": "PPL"
    },
    {
      "lng": "87.32501",
      "geonameId": 1266976,
      "countryCode": "IN",
      "name": "Kharagpur",
      "toponymName": "Kharagpur",
      "lat": "22.33971",
      "fcl": "P",
      "fcode": "PPL"
    },
    {
      "lng": "76.35086",
      "geonameId": 1267031,
      "countryCode": "IN",
      "name": "Khandwa",
      "toponymName": "Khandwa",
      "lat": "21.82427",
      "fcl": "P",
      "fcode": "PPL"
    },
    {
      "lng": "80.14368",
      "geonameId": 1267076,
      "countryCode": "IN",
      "name": "Khammam",
      "toponymName": "Khammam",
      "lat": "17.24767",
      "fcl": "P",
      "fcode": "PPL"
    },
    {
      "lng": "73.80696",
      "geonameId": 1259652,
      "countryCode": "IN",
      "name": "Pimpri",
      "toponymName": "Pimpri",
      "lat": "18.62292",
      "fcl": "P",
      "fcode": "PPL"
    },
    {
      "lng": "75.65287",
      "geonameId": 1260137,
      "countryCode": "IN",
      "name": "Pathānkot",
      "toponymName": "Pathānkot",
      "lat": "32.27484",
      "fcl": "P",
      "fcode": "PPL"
    },
    {
      "lng": "76.77081",
      "geonameId": 1260341,
      "countryCode": "IN",
      "name": "Parbhani",
      "toponymName": "Parbhani",
      "lat": "19.26855",
      "fcl": "P",
      "fcode": "PPL"
    },
    {
      "lng": "73.11013",
      "geonameId": 1260434,
      "countryCode": "IN",
      "name": "Panvel",
      "toponymName": "Panvel",
      "lat": "18.98878",
      "fcl": "P",
      "fcode": "PPL"
    },
    {
      "lng": "77.32546",
      "geonameId": 1260637,
      "countryCode": "IN",
      "name": "Palwal",
      "toponymName": "Palwal",
      "lat": "28.14469",
      "fcl": "P",
      "fcode": "PPL"
    },
    {
      "lng": "76.65366",
      "geonameId": 1260728,
      "countryCode": "IN",
      "name": "Palakkad",
      "toponymName": "Pālghāt",
      "lat": "10.77319",
      "fcl": "P",
      "fcode": "PPL"
    },
    {
      "lng": "80.04454",
      "geonameId": 1261045,
      "countryCode": "IN",
      "name": "Ongole",
      "toponymName": "Ongole",
      "lat": "15.50357",
      "fcl": "P",
      "fcode": "PPL"
    },
    {
      "lng": "82.54826",
      "geonameId": 1261162,
      "countryCode": "IN",
      "name": "Nowrangapur",
      "toponymName": "Nowrangapur",
      "lat": "19.23114",
      "fcl": "P",
      "fcode": "PPLA2"
    },
    {
      "lng": "77.09288",
      "geonameId": 1261809,
      "countryCode": "IN",
      "name": "Narela",
      "toponymName": "Narela",
      "lat": "28.85267",
      "fcl": "P",
      "fcode": "PPL"
    },
    {
      "lng": "79.26707",
      "geonameId": 1262067,
      "countryCode": "IN",
      "name": "Nalgonda",
      "toponymName": "Nalgonda",
      "lat": "17.05439",
      "fcl": "P",
      "fcode": "PPL"
    },
    {
      "lng": "76.97982",
      "geonameId": 1262111,
      "countryCode": "IN",
      "name": "Najafgarh",
      "toponymName": "Najafgarh",
      "lat": "28.60922",
      "fcl": "P",
      "fcode": "PPL"
    },
    {
      "lng": "94.5",
      "geonameId": 1262271,
      "countryCode": "IN",
      "name": "Nagaland",
      "toponymName": "State of Nāgāland",
      "lat": "26.08333",
      "fcl": "A",
      "fcode": "ADM1"
    },
    {
      "lng": "77.99534",
      "geonameId": 1262771,
      "countryCode": "IN",
      "name": "Morena",
      "toponymName": "Morena",
      "lat": "26.49892",
      "fcl": "P",
      "fcode": "PPL"
    },
    {
      "lng": "75.16878",
      "geonameId": 1262951,
      "countryCode": "IN",
      "name": "Moga",
      "toponymName": "Moga",
      "lat": "30.81383",
      "fcl": "P",
      "fcode": "PPL"
    },
    {
      "lng": "93",
      "geonameId": 1262963,
      "countryCode": "IN",
      "name": "Mizoram",
      "toponymName": "Mizoram",
      "lat": "23",
      "fcl": "A",
      "fcode": "ADM1"
    },
    {
      "lng": "91.33333",
      "geonameId": 1263207,
      "countryCode": "IN",
      "name": "Meghalaya",
      "toponymName": "Meghālaya",
      "lat": "25.5",
      "fcl": "A",
      "fcode": "ADM1"
    },
    {
      "lng": "92.79787",
      "geonameId": 1256287,
      "countryCode": "IN",
      "name": "Silchar",
      "toponymName": "Silchar",
      "lat": "24.82733",
      "fcl": "P",
      "fcode": "PPL"
    },
    {
      "lng": "88.5",
      "geonameId": 1256312,
      "countryCode": "IN",
      "name": "Sikkim",
      "toponymName": "Sikkim",
      "lat": "27.75",
      "fcl": "A",
      "fcode": "ADM1"
    },
    {
      "lng": "75.56791",
      "geonameId": 1256515,
      "countryCode": "IN",
      "name": "Shimoga",
      "toponymName": "Shimoga",
      "lat": "13.93157",
      "fcl": "P",
      "fcode": "PPL"
    },
    {
      "lng": "88.42851",
      "geonameId": 1256525,
      "countryCode": "IN",
      "name": "Siliguri",
      "toponymName": "Siliguri",
      "lat": "26.71004",
      "fcl": "P",
      "fcode": "PPL"
    },
    {
      "lng": "77.75346",
      "geonameId": 1257082,
      "countryCode": "IN",
      "name": "Saser Kangri",
      "toponymName": "Saser Kangri",
      "lat": "34.86678",
      "fcl": "T",
      "fcode": "MT"
    },
    {
      "lng": "83.97573",
      "geonameId": 1257542,
      "countryCode": "IN",
      "name": "Sambalpur",
      "toponymName": "Sambalpur",
      "lat": "21.46527",
      "fcl": "P",
      "fcode": "PPL"
    },
    {
      "lng": "86.59611",
      "geonameId": 1257804,
      "countryCode": "IN",
      "name": "Saharsa",
      "toponymName": "Saharsa",
      "lat": "25.87498",
      "fcl": "P",
      "fcode": "PPL"
    },
    {
      "lng": "77.89118",
      "geonameId": 1258044,
      "countryCode": "IN",
      "name": "Roorkee",
      "toponymName": "Roorkee",
      "lat": "29.86632",
      "fcl": "P",
      "fcode": "PPL"
    },
    {
      "lng": "76.58917",
      "geonameId": 1258076,
      "countryCode": "IN",
      "name": "Rohtak",
      "toponymName": "Rohtak",
      "lat": "28.89447",
      "fcl": "P",
      "fcode": "PPL"
    },
    {
      "lng": "81.29234",
      "geonameId": 1258182,
      "countryCode": "IN",
      "name": "Rewa",
      "toponymName": "Rewa",
      "lat": "24.53256",
      "fcl": "P",
      "fcode": "PPL"
    },
    {
      "lng": "81.77784",
      "geonameId": 1258932,
      "countryCode": "IN",
      "name": "Rajahmundry",
      "toponymName": "Rājahmundry",
      "lat": "17.00517",
      "fcl": "P",
      "fcode": "PPL"
    },
    {
      "lng": "83.3966",
      "geonameId": 1259005,
      "countryCode": "IN",
      "name": "Raigarh",
      "toponymName": "Raigarh",
      "lat": "21.89764",
      "fcl": "P",
      "fcode": "PPL"
    },
    {
      "lng": "76.58469",
      "geonameId": 1259091,
      "countryCode": "IN",
      "name": "Kollam",
      "toponymName": "Kollam",
      "lat": "8.88113",
      "fcl": "P",
      "fcode": "PPLA2"
    },
    {
      "lng": "87.47422",
      "geonameId": 1259166,
      "countryCode": "IN",
      "name": "Purnia",
      "toponymName": "Purnia",
      "lat": "25.77895",
      "fcl": "P",
      "fcode": "PPL"
    },
    {
      "lng": "85.82494",
      "geonameId": 1259184,
      "countryCode": "IN",
      "name": "Puri",
      "toponymName": "Puri",
      "lat": "19.79825",
      "fcl": "P",
      "fcode": "PPL"
    },
    {
      "lng": "78.82141",
      "geonameId": 1259297,
      "countryCode": "IN",
      "name": "Pudukkottai",
      "toponymName": "Pudukkottai",
      "lat": "10.38128",
      "fcl": "P",
      "fcode": "PPL"
    },
    {
      "lng": "69.60929",
      "geonameId": 1259395,
      "countryCode": "IN",
      "name": "Porbandar",
      "toponymName": "Porbandar",
      "lat": "21.64219",
      "fcl": "P",
      "fcode": "PPL"
    },
    {
      "lng": "80.19205",
      "geonameId": 1270990,
      "countryCode": "IN",
      "name": "Gondiā",
      "toponymName": "Gondiā",
      "lat": "21.46026",
      "fcl": "P",
      "fcode": "PPL"
    },
    {
      "lng": "73.61488",
      "geonameId": 1271107,
      "countryCode": "IN",
      "name": "Godhra",
      "toponymName": "Godhra",
      "lat": "22.77547",
      "fcl": "P",
      "fcode": "PPL"
    },
    {
      "lng": "77.43915",
      "geonameId": 1271308,
      "countryCode": "IN",
      "name": "Ghaziabad",
      "toponymName": "Ghāziābād",
      "lat": "28.66535",
      "fcl": "P",
      "fcode": "PPLA2"
    },
    {
      "lng": "88.61216",
      "geonameId": 1271631,
      "countryCode": "IN",
      "name": "Gangtok",
      "toponymName": "Gangtok",
      "lat": "27.32574",
      "fcl": "P",
      "fcode": "PPLA"
    },
    {
      "lng": "77.72741",
      "geonameId": 1272013,
      "countryCode": "IN",
      "name": "Erode",
      "toponymName": "Erode",
      "lat": "11.3428",
      "fcl": "P",
      "fcode": "PPL"
    },
    {
      "lng": "81.27619",
      "geonameId": 1272181,
      "countryCode": "IN",
      "name": "Durg",
      "toponymName": "Durg",
      "lat": "21.19147",
      "fcl": "P",
      "fcode": "PPL"
    },
    {
      "lng": "73.08333",
      "geonameId": 1272423,
      "countryCode": "IN",
      "name": "Dombivali",
      "toponymName": "Dombivli",
      "lat": "19.21667",
      "fcl": "P",
      "fcode": "PPL"
    },
    {
      "lng": "91.80069",
      "geonameId": 1272508,
      "countryCode": "IN",
      "name": "Dispur",
      "toponymName": "Dispur",
      "lat": "26.13564",
      "fcl": "P",
      "fcode": "PPLA"
    },
    {
      "lng": "77.98036",
      "geonameId": 1272543,
      "countryCode": "IN",
      "name": "Dindigul",
      "toponymName": "Dindigul",
      "lat": "10.36896",
      "fcl": "P",
      "fcode": "PPL"
    },
    {
      "lng": "94.90837",
      "geonameId": 1272648,
      "countryCode": "IN",
      "name": "Dibrugarh",
      "toponymName": "Dibrugarh",
      "lat": "27.47989",
      "fcl": "P",
      "fcode": "PPLA2"
    },
    {
      "lng": "86.42992",
      "geonameId": 1272979,
      "countryCode": "IN",
      "name": "Dhanbad",
      "toponymName": "Dhanbad",
      "lat": "23.79759",
      "fcl": "P",
      "fcode": "PPL"
    },
    {
      "lng": "76.05526",
      "geonameId": 1273066,
      "countryCode": "IN",
      "name": "Dewas",
      "toponymName": "Dewas",
      "lat": "22.96585",
      "fcl": "P",
      "fcode": "PPL"
    },
    {
      "lng": "83.77936",
      "geonameId": 1273193,
      "countryCode": "IN",
      "name": "Deoria",
      "toponymName": "Deoria",
      "lat": "26.50167",
      "fcl": "P",
      "fcode": "PPL"
    },
    {
      "lng": "78.03392",
      "geonameId": 1273313,
      "countryCode": "IN",
      "name": "Dehra Dūn",
      "toponymName": "Dehra Dūn",
      "lat": "30.32443",
      "fcl": "P",
      "fcode": "PPLA"
    },
    {
      "lng": "88.26667",
      "geonameId": 1273467,
      "countryCode": "IN",
      "name": "Darjeeling",
      "toponymName": "Dārjiling",
      "lat": "27.03333",
      "fcl": "P",
      "fcode": "PPL"
    },
    {
      "lng": "85.89707",
      "geonameId": 1273491,
      "countryCode": "IN",
      "name": "Darbhanga",
      "toponymName": "Darbhanga",
      "lat": "26.15216",
      "fcl": "P",
      "fcode": "PPL"
    },
    {
      "lng": "79.4419",
      "geonameId": 1273587,
      "countryCode": "IN",
      "name": "Damoh",
      "toponymName": "Damoh",
      "lat": "23.83312",
      "fcl": "P",
      "fcode": "PPL"
    },
    {
      "lng": "72.83236",
      "geonameId": 1273618,
      "countryCode": "IN",
      "name": "Damān",
      "toponymName": "Damān",
      "lat": "20.41431",
      "fcl": "P",
      "fcode": "PPLA"
    },
    {
      "lng": "79.76693",
      "geonameId": 1273802,
      "countryCode": "IN",
      "name": "Cuddalore",
      "toponymName": "Cuddalore",
      "lat": "11.75617",
      "fcl": "P",
      "fcode": "PPL"
    },
    {
      "lng": "76.40038",
      "geonameId": 1274056,
      "countryCode": "IN",
      "name": "Chitradurga",
      "toponymName": "Chitradurga",
      "lat": "14.22262",
      "fcl": "P",
      "fcode": "PPL"
    },
    {
      "lng": "78.95693",
      "geonameId": 1267579,
      "countryCode": "IN",
      "name": "Kashipur",
      "toponymName": "Kashipur",
      "lat": "29.21399",
      "fcl": "P",
      "fcode": "PPL"
    },
    {
      "lng": "79.9188",
      "geonameId": 1268011,
      "countryCode": "IN",
      "name": "Kannauj",
      "toponymName": "Kannauj",
      "lat": "27.05524",
      "fcl": "P",
      "fcode": "PPL"
    },
    {
      "lng": "79.70006",
      "geonameId": 1268159,
      "countryCode": "IN",
      "name": "Kanchipuram",
      "toponymName": "Kanchipuram",
      "lat": "12.83515",
      "fcl": "P",
      "fcode": "PPL"
    },
    {
      "lng": "73.13554",
      "geonameId": 1268295,
      "countryCode": "IN",
      "name": "Kalyān",
      "toponymName": "Kalyān",
      "lat": "19.2437",
      "fcl": "P",
      "fcode": "PPL"
    },
    {
      "lng": "76.39959",
      "geonameId": 1268593,
      "countryCode": "IN",
      "name": "Kaithal",
      "toponymName": "Kaithal",
      "lat": "29.80153",
      "fcl": "P",
      "fcode": "PPL"
    },
    {
      "lng": "82.68689",
      "geonameId": 1269135,
      "countryCode": "IN",
      "name": "Jaunpur",
      "toponymName": "Jaunpur",
      "lat": "25.75356",
      "fcl": "P",
      "fcode": "PPL"
    },
    {
      "lng": "70.06673",
      "geonameId": 1269317,
      "countryCode": "IN",
      "name": "Jamnagar",
      "toponymName": "Jamnagar",
      "lat": "22.47292",
      "fcl": "P",
      "fcode": "PPL"
    },
    {
      "lng": "75.40781",
      "geonameId": 1269320,
      "countryCode": "IN",
      "name": "Jammu and Kashmir",
      "toponymName": "State of Jammu and Kashmīr",
      "lat": "33.5329",
      "fcl": "A",
      "fcode": "ADM1"
    },
    {
      "lng": "74.86911",
      "geonameId": 1269321,
      "countryCode": "IN",
      "name": "Jammu",
      "toponymName": "Jammu",
      "lat": "32.73569",
      "fcl": "P",
      "fcode": "PPL"
    },
    {
      "lng": "93.60987",
      "geonameId": 1269655,
      "countryCode": "IN",
      "name": "Itanagar",
      "toponymName": "Itānagar",
      "lat": "27.08694",
      "fcl": "P",
      "fcode": "PPLA"
    },
    {
      "lng": "74.46054",
      "geonameId": 1269834,
      "countryCode": "IN",
      "name": "Ichalkaranji",
      "toponymName": "Ichalkaranji",
      "lat": "16.69117",
      "fcl": "P",
      "fcode": "PPL"
    },
    {
      "lng": "75.13378",
      "geonameId": 1269920,
      "countryCode": "IN",
      "name": "Hubli",
      "toponymName": "Hubli",
      "lat": "15.34776",
      "fcl": "P",
      "fcode": "PPL"
    },
    {
      "lng": "76.3871",
      "geonameId": 1269935,
      "countryCode": "IN",
      "name": "Hospet",
      "toponymName": "Hospet",
      "lat": "15.26954",
      "fcl": "P",
      "fcode": "PPL"
    },
    {
      "lng": "75.72294",
      "geonameId": 1270022,
      "countryCode": "IN",
      "name": "Hisar",
      "toponymName": "Hisar",
      "lat": "29.15394",
      "fcl": "P",
      "fcode": "PPL"
    },
    {
      "lng": "78.16025",
      "geonameId": 1270351,
      "countryCode": "IN",
      "name": "Haridwar",
      "toponymName": "Haridwar",
      "lat": "29.94791",
      "fcl": "P",
      "fcode": "PPL"
    },
    {
      "lng": "79.5286",
      "geonameId": 1270498,
      "countryCode": "IN",
      "name": "Haldwani",
      "toponymName": "Haldwani",
      "lat": "29.22254",
      "fcl": "P",
      "fcode": "PPL"
    },
    {
      "lng": "78.17337",
      "geonameId": 1270583,
      "countryCode": "IN",
      "name": "Gwalior",
      "toponymName": "Gwalior",
      "lat": "26.22983",
      "fcl": "P",
      "fcode": "PPL"
    },
    {
      "lng": "77.02635",
      "geonameId": 1270642,
      "countryCode": "IN",
      "name": "Gurgaon",
      "toponymName": "Gurgaon",
      "lat": "28.4601",
      "fcl": "P",
      "fcode": "PPL"
    },
    {
      "lng": "80.45729",
      "geonameId": 1270668,
      "countryCode": "IN",
      "name": "Guntur",
      "toponymName": "Guntur",
      "lat": "16.29974",
      "fcl": "P",
      "fcode": "PPL"
    },
    {
      "lng": "77.36244",
      "geonameId": 1270670,
      "countryCode": "IN",
      "name": "Guntakal",
      "toponymName": "Guntakal Junction",
      "lat": "15.17112",
      "fcl": "P",
      "fcode": "PPL"
    },
    {
      "lng": "78.59784",
      "geonameId": 1252942,
      "countryCode": "IN",
      "name": "Wardha",
      "toponymName": "Wardha",
      "lat": "20.73933",
      "fcl": "P",
      "fcode": "PPL"
    },
    {
      "lng": "83.41148",
      "geonameId": 1253084,
      "countryCode": "IN",
      "name": "Vizianagaram",
      "toponymName": "Vizianagaram",
      "lat": "18.11692",
      "fcl": "P",
      "fcode": "PPLA2"
    },
    {
      "lng": "77.81092",
      "geonameId": 1253200,
      "countryCode": "IN",
      "name": "Vidisha",
      "toponymName": "Vidisha",
      "lat": "23.52604",
      "fcl": "P",
      "fcode": "PPL"
    },
    {
      "lng": "79.13255",
      "geonameId": 1253286,
      "countryCode": "IN",
      "name": "Vellore",
      "toponymName": "Vellore",
      "lat": "12.9184",
      "fcl": "P",
      "fcode": "PPL"
    },
    {
      "lng": "73.15",
      "geonameId": 1253894,
      "countryCode": "IN",
      "name": "Ulhasnagar",
      "toponymName": "Ulhasnagar",
      "lat": "19.21667",
      "fcl": "P",
      "fcode": "PPL"
    },
    {
      "lng": "73.71346",
      "geonameId": 1253986,
      "countryCode": "IN",
      "name": "Udaipur",
      "toponymName": "Udaipur",
      "lat": "24.58584",
      "fcl": "P",
      "fcode": "PPL"
    },
    {
      "lng": "92",
      "geonameId": 1254169,
      "countryCode": "IN",
      "name": "Tripura",
      "toponymName": "Tripura",
      "lat": "24",
      "fcl": "A",
      "fcode": "ADM1"
    },
    {
      "lng": "77.35456",
      "geonameId": 1254348,
      "countryCode": "IN",
      "name": "Tirupur",
      "toponymName": "Tiruppur",
      "lat": "11.11541",
      "fcl": "P",
      "fcode": "PPL"
    },
    {
      "lng": "79.41989",
      "geonameId": 1254360,
      "countryCode": "IN",
      "name": "Tirupati",
      "toponymName": "Tirupati",
      "lat": "13.63551",
      "fcl": "P",
      "fcode": "PPL"
    },
    {
      "lng": "79.13909",
      "geonameId": 1254649,
      "countryCode": "IN",
      "name": "Thanjavur",
      "toponymName": "Tanjore",
      "lat": "10.78523",
      "fcl": "P",
      "fcode": "PPL"
    },
    {
      "lng": "78.13425",
      "geonameId": 8629640,
      "countryCode": "IN",
      "name": "Thoothukudi",
      "toponymName": "Thoothukudi",
      "lat": "8.76735",
      "fcl": "P",
      "fcode": "PPL"
    },
    {
      "lng": "79.474",
      "geonameId": 8347656,
      "countryCode": "IN",
      "name": "Ramagundam",
      "toponymName": "Ramagundam",
      "lat": "18.755",
      "fcl": "P",
      "fcode": "PPL"
    },
    {
      "lng": "77.33",
      "geonameId": 7279746,
      "countryCode": "IN",
      "name": "Noida",
      "toponymName": "Noida",
      "lat": "28.58",
      "fcl": "P",
      "fcode": "PPL"
    },
    {
      "lng": "77.10309",
      "geonameId": 6301872,
      "countryCode": "IN",
      "name": "Indira Gandhi International Airport",
      "toponymName": "Indira Gandhi International Airport",
      "lat": "28.5665",
      "fcl": "S",
      "fcode": "AIRP"
    },
    {
      "lng": "72.86792",
      "geonameId": 6301032,
      "countryCode": "IN",
      "name": "Mumbai Airport",
      "toponymName": "Chhatrapati Shivaji Maharaj International Airport",
      "lat": "19.08869",
      "fcl": "S",
      "fcode": "AIRP"
    },
    {
      "lng": "72.85112",
      "geonameId": 12165662,
      "countryCode": "IN",
      "name": "Dadra and Nagar Haveli and Daman and Diu",
      "toponymName": "Dadra and Nagar Haveli and Daman and Diu",
      "lat": "20.42587",
      "fcl": "A",
      "fcode": "ADM1"
    },
    {
      "lng": "88.25322",
      "geonameId": 1348843,
      "countryCode": "IN",
      "name": "Maheshtala",
      "toponymName": "Maheshtala",
      "lat": "22.50862",
      "fcl": "P",
      "fcode": "PPL"
    },
    {
      "lng": "80.10981",
      "geonameId": 1278130,
      "countryCode": "IN",
      "name": "Avadi",
      "toponymName": "Āvadi",
      "lat": "13.1147",
      "fcl": "P",
      "fcode": "PPL"
    },
    {
      "lng": "79.50918",
      "geonameId": 1278152,
      "countryCode": "IN",
      "name": "Auraiya",
      "toponymName": "Auraiya",
      "lat": "26.46517",
      "fcl": "P",
      "fcode": "PPL"
    },
    {
      "lng": "77.73123",
      "geonameId": 1278297,
      "countryCode": "IN",
      "name": "Ashoknagar",
      "toponymName": "Ashoknagar",
      "lat": "24.57578",
      "fcl": "P",
      "fcode": "PPL"
    },
    {
      "lng": "93.37",
      "geonameId": 1278341,
      "countryCode": "IN",
      "name": "Arunachal Pradesh",
      "toponymName": "State of Arunāchal Pradesh",
      "lat": "27.06",
      "fcl": "A",
      "fcode": "ADM1"
    },
    {
      "lng": "87.51323",
      "geonameId": 1278446,
      "countryCode": "IN",
      "name": "Arāria",
      "toponymName": "Arāria",
      "lat": "26.14934",
      "fcl": "P",
      "fcode": "PPL"
    },
    {
      "lng": "75.15418",
      "geonameId": 1278667,
      "countryCode": "IN",
      "name": "Anantnag",
      "toponymName": "Anantnag",
      "lat": "33.73068",
      "fcl": "P",
      "fcode": "PPL"
    },
    {
      "lng": "72.9552",
      "geonameId": 1278685,
      "countryCode": "IN",
      "name": "Anand",
      "toponymName": "Anand",
      "lat": "22.55251",
      "fcl": "P",
      "fcode": "PPL"
    },
    {
      "lng": "78.46984",
      "geonameId": 1278708,
      "countryCode": "IN",
      "name": "Amroha",
      "toponymName": "Amroha",
      "lat": "28.90314",
      "fcl": "P",
      "fcode": "PPL"
    },
    {
      "lng": "71.21169",
      "geonameId": 1278715,
      "countryCode": "IN",
      "name": "Amreli",
      "toponymName": "Amreli",
      "lat": "21.59983",
      "fcl": "P",
      "fcode": "PPLA2"
    },
    {
      "lng": "77.75",
      "geonameId": 1278718,
      "countryCode": "IN",
      "name": "Amrāvati",
      "toponymName": "Amrāvati",
      "lat": "20.93333",
      "fcl": "P",
      "fcode": "PPLA2"
    },
    {
      "lng": "78.71644",
      "geonameId": 1278815,
      "countryCode": "IN",
      "name": "Ambur",
      "toponymName": "Ambur",
      "lat": "12.79163",
      "fcl": "P",
      "fcode": "PPL"
    },
    {
      "lng": "80.16152",
      "geonameId": 1278840,
      "countryCode": "IN",
      "name": "Ambattur",
      "toponymName": "Ambattūr",
      "lat": "13.09818",
      "fcl": "P",
      "fcode": "PPL"
    },
    {
      "lng": "76.79782",
      "geonameId": 1278860,
      "countryCode": "IN",
      "name": "Ambāla",
      "toponymName": "Ambāla",
      "lat": "30.36099",
      "fcl": "P",
      "fcode": "PPL"
    },
    {
      "lng": "73.16667",
      "geonameId": 1278903,
      "countryCode": "IN",
      "name": "Ambarnath",
      "toponymName": "Amarnāth",
      "lat": "19.2",
      "fcl": "P",
      "fcode": "PPL"
    },
    {
      "lng": "75.05887",
      "geonameId": 1278931,
      "countryCode": "IN",
      "name": "Amalner",
      "toponymName": "Amalner",
      "lat": "21.03983",
      "fcl": "P",
      "fcode": "PPL"
    },
    {
      "lng": "76.3264",
      "geonameId": 1278985,
      "countryCode": "IN",
      "name": "Alappuzha",
      "toponymName": "Alappuzha",
      "lat": "9.49004",
      "fcl": "P",
      "fcode": "PPLA2"
    },
    {
      "lng": "77.0588",
      "geonameId": 1279094,
      "countryCode": "IN",
      "name": "Akot",
      "toponymName": "Akot",
      "lat": "21.0963",
      "fcl": "P",
      "fcode": "PPL"
    },
    {
      "lng": "77.27495",
      "geonameId": 1279335,
      "countryCode": "IN",
      "name": "Adoni",
      "toponymName": "Ādoni",
      "lat": "15.62788",
      "fcl": "P",
      "fcode": "PPL"
    },
    {
      "lng": "78.5359",
      "geonameId": 1279344,
      "countryCode": "IN",
      "name": "Adilabad",
      "toponymName": "Ādilābād",
      "lat": "19.67203",
      "fcl": "P",
      "fcode": "PPL"
    },
    {
      "lng": "78.93958",
      "geonameId": 1274304,
      "countryCode": "IN",
      "name": "Chhindwāra",
      "toponymName": "Chhindwāra",
      "lat": "22.05697",
      "fcl": "P",
      "fcode": "PPL"
    },
    {
      "lng": "91.69619",
      "geonameId": 1274406,
      "countryCode": "IN",
      "name": "Cherrapunjee",
      "toponymName": "Cherrapunji",
      "lat": "25.30089",
      "fcl": "P",
      "fcode": "PPL"
    },
    {
      "lng": "86.16712",
      "geonameId": 1274553,
      "countryCode": "IN",
      "name": "Chas",
      "toponymName": "Chās",
      "lat": "23.63556",
      "fcl": "P",
      "fcode": "PPL"
    },
    {
      "lng": "76.77778",
      "geonameId": 1274744,
      "countryCode": "IN",
      "name": "Chandigarh",
      "toponymName": "Union Territory of Chandigarh",
      "lat": "30.72778",
      "fcl": "A",
      "fcode": "ADM1"
    },
    {
      "lng": "78.78277",
      "geonameId": 1274767,
      "countryCode": "IN",
      "name": "Chanduasi",
      "toponymName": "Chanduasi",
      "lat": "28.45178",
      "fcl": "P",
      "fcode": "PPL"
    },
    {
      "lng": "72.85976",
      "geonameId": 1275248,
      "countryCode": "IN",
      "name": "Borivali",
      "toponymName": "Borivli",
      "lat": "19.23496",
      "fcl": "P",
      "fcode": "PPL"
    },
    {
      "lng": "84.9869",
      "geonameId": 1275389,
      "countryCode": "IN",
      "name": "Bodh Gaya",
      "toponymName": "Buddh Gaya",
      "lat": "24.69808",
      "fcl": "P",
      "fcode": "PPL"
    },
    {
      "lng": "72.96134",
      "geonameId": 1275610,
      "countryCode": "IN",
      "name": "Bilimora",
      "toponymName": "Bilimora",
      "lat": "20.76957",
      "fcl": "P",
      "fcode": "PPL"
    },
    {
      "lng": "82.15543",
      "geonameId": 1275637,
      "countryCode": "IN",
      "name": "Bilāspur",
      "toponymName": "Bilāspur",
      "lat": "22.08005",
      "fcl": "P",
      "fcode": "PPL"
    },
    {
      "lng": "73.16667",
      "geonameId": 1275666,
      "countryCode": "IN",
      "name": "Bikaner",
      "toponymName": "Bīkāner",
      "lat": "28.16667",
      "fcl": "A",
      "fcode": "ADM2"
    },
    {
      "lng": "78.13636",
      "geonameId": 1275679,
      "countryCode": "IN",
      "name": "Bijnor",
      "toponymName": "Bijnor",
      "lat": "29.373",
      "fcl": "P",
      "fcode": "PPL"
    },
    {
      "lng": "75.78506",
      "geonameId": 1275778,
      "countryCode": "IN",
      "name": "Bhusawal",
      "toponymName": "Bhusāval",
      "lat": "21.04365",
      "fcl": "P",
      "fcode": "PPL"
    },
    {
      "lng": "78.78728",
      "geonameId": 1275926,
      "countryCode": "IN",
      "name": "Bhind",
      "toponymName": "Bhind",
      "lat": "26.56671",
      "fcl": "P",
      "fcode": "PPL"
    },
    {
      "lng": "81.52322",
      "geonameId": 1275947,
      "countryCode": "IN",
      "name": "Bhīmavaram",
      "toponymName": "Bhīmavaram",
      "lat": "16.54078",
      "fcl": "P",
      "fcode": "PPL"
    },
    {
      "lng": "74.64081",
      "geonameId": 1275960,
      "countryCode": "IN",
      "name": "Bhilwara",
      "toponymName": "Bhīlwāra",
      "lat": "25.34707",
      "fcl": "P",
      "fcode": "PPL"
    },
    {
      "lng": "72.85107",
      "geonameId": 1276014,
      "countryCode": "IN",
      "name": "Bhayandar",
      "toponymName": "Bhayandar",
      "lat": "19.30157",
      "fcl": "P",
      "fcode": "PPL"
    },
    {
      "lng": "88.40113",
      "geonameId": 1276058,
      "countryCode": "IN",
      "name": "Bhātpāra",
      "toponymName": "Bhātpāra",
      "lat": "22.86643",
      "fcl": "P",
      "fcode": "PPL"
    },
    {
      "lng": "72.9805",
      "geonameId": 1276100,
      "countryCode": "IN",
      "name": "Bharūch",
      "toponymName": "Bharūch",
      "lat": "21.69482",
      "fcl": "P",
      "fcode": "PPL"
    },
    {
      "lng": "86.97183",
      "geonameId": 1276300,
      "countryCode": "IN",
      "name": "Bhāgalpur",
      "toponymName": "Bhāgalpur",
      "lat": "25.24446",
      "fcl": "P",
      "fcode": "PPL"
    },
    {
      "lng": "88.33841",
      "geonameId": 1276320,
      "countryCode": "IN",
      "name": "Bhadreswar",
      "toponymName": "Bhadreswar",
      "lat": "22.82449",
      "fcl": "P",
      "fcode": "PPL"
    },
    {
      "lng": "82.5703",
      "geonameId": 1276335,
      "countryCode": "IN",
      "name": "Bhadohi",
      "toponymName": "Bhadohi",
      "lat": "25.39526",
      "fcl": "P",
      "fcode": "PPL"
    },
    {
      "lng": "75.80611",
      "geonameId": 1276378,
      "countryCode": "IN",
      "name": "Beypore",
      "toponymName": "Beypore",
      "lat": "11.17151",
      "fcl": "P",
      "fcode": "PPL"
    },
    {
      "lng": "74.32028",
      "geonameId": 1276634,
      "countryCode": "IN",
      "name": "Beāwar",
      "toponymName": "Beāwar",
      "lat": "26.10119",
      "fcl": "P",
      "fcode": "PPL"
    },
    {
      "lng": "75.20294",
      "geonameId": 1276720,
      "countryCode": "IN",
      "name": "Batāla",
      "toponymName": "Batāla",
      "lat": "31.80921",
      "fcl": "P",
      "fcode": "PPL"
    },
    {
      "lng": "82.71617",
      "geonameId": 1276736,
      "countryCode": "IN",
      "name": "Basti",
      "toponymName": "Bastī",
      "lat": "26.78817",
      "fcl": "P",
      "fcode": "PPL"
    },
    {
      "lng": "75.69275",
      "geonameId": 1276856,
      "countryCode": "IN",
      "name": "Bārsi",
      "toponymName": "Bārsi",
      "lat": "18.23454",
      "fcl": "P",
      "fcode": "PPL"
    },
    {
      "lng": "75.5487",
      "geonameId": 1276895,
      "countryCode": "IN",
      "name": "Barnāla",
      "toponymName": "Barnāla",
      "lat": "30.37451",
      "fcl": "P",
      "fcode": "PPL"
    },
    {
      "lng": "71.5",
      "geonameId": 1276902,
      "countryCode": "IN",
      "name": "Barmer",
      "toponymName": "Bārmer",
      "lat": "25.75",
      "fcl": "A",
      "fcode": "ADM2"
    },
    {
      "lng": "83.61905",
      "geonameId": 1276988,
      "countryCode": "IN",
      "name": "Bargarh",
      "toponymName": "Bargarh",
      "lat": "21.33348",
      "fcl": "P",
      "fcode": "PPL"
    },
    {
      "lng": "87.85691",
      "geonameId": 1277029,
      "countryCode": "IN",
      "name": "Bardhaman",
      "toponymName": "Barddhamān",
      "lat": "23.25572",
      "fcl": "P",
      "fcode": "PPL"
    },
    {
      "lng": "88.48198",
      "geonameId": 1277065,
      "countryCode": "IN",
      "name": "Bārāsat",
      "toponymName": "Bārāsat",
      "lat": "22.72154",
      "fcl": "P",
      "fcode": "PPL"
    },
    {
      "lng": "88.37727",
      "geonameId": 1277082,
      "countryCode": "IN",
      "name": "Baranagar",
      "toponymName": "Baranagar",
      "lat": "22.64132",
      "fcl": "P",
      "fcode": "PPLX"
    },
    {
      "lng": "88.36336",
      "geonameId": 1277100,
      "countryCode": "IN",
      "name": "Bārākpur",
      "toponymName": "Bārākpur",
      "lat": "22.76602",
      "fcl": "P",
      "fcode": "PPL"
    },
    {
      "lng": "88.40098",
      "geonameId": 1277240,
      "countryCode": "IN",
      "name": "Bānsbāria",
      "toponymName": "Bānsbāria",
      "lat": "22.95387",
      "fcl": "P",
      "fcode": "PPL"
    },
    {
      "lng": "88.83084",
      "geonameId": 1277324,
      "countryCode": "IN",
      "name": "Bangaon",
      "toponymName": "Bangaon",
      "lat": "23.04553",
      "fcl": "P",
      "fcode": "PPL"
    },
    {
      "lng": "80.33491",
      "geonameId": 1277397,
      "countryCode": "IN",
      "name": "Bānda",
      "toponymName": "Bānda",
      "lat": "25.47758",
      "fcl": "P",
      "fcode": "PPL"
    },
    {
      "lng": "88.77732",
      "geonameId": 1277508,
      "countryCode": "IN",
      "name": "Bālurghāt",
      "toponymName": "Bālurghāt",
      "lat": "25.22099",
      "fcl": "P",
      "fcode": "PPL"
    },
    {
      "lng": "88.34115",
      "geonameId": 1277539,
      "countryCode": "IN",
      "name": "Bāli",
      "toponymName": "Bāli",
      "lat": "22.64859",
      "fcl": "P",
      "fcode": "PPL"
    },
    {
      "lng": "88.32586",
      "geonameId": 1277780,
      "countryCode": "IN",
      "name": "Baidyabati",
      "toponymName": "Baidyabāti",
      "lat": "22.78498",
      "fcl": "P",
      "fcode": "PPL"
    },
    {
      "lng": "81.59474",
      "geonameId": 1277799,
      "countryCode": "IN",
      "name": "Bahraich",
      "toponymName": "Bahraigh",
      "lat": "27.57429",
      "fcl": "P",
      "fcode": "PPL"
    },
    {
      "lng": "76.93555",
      "geonameId": 1277835,
      "countryCode": "IN",
      "name": "Bahadurgarh",
      "toponymName": "Bahādurgarh",
      "lat": "28.69287",
      "fcl": "P",
      "fcode": "PPL"
    },
    {
      "lng": "75.69614",
      "geonameId": 1277936,
      "countryCode": "IN",
      "name": "Bagalkot",
      "toponymName": "Bagalkot",
      "lat": "16.18673",
      "fcl": "P",
      "fcode": "PPL"
    },
    {
      "lng": "84.09003",
      "geonameId": 1277939,
      "countryCode": "IN",
      "name": "Bagaha",
      "toponymName": "Bagaha",
      "lat": "27.09918",
      "fcl": "P",
      "fcode": "PPL"
    },
    {
      "lng": "73.26553",
      "geonameId": 1277976,
      "countryCode": "IN",
      "name": "Badlapur",
      "toponymName": "Badlapur",
      "lat": "19.15516",
      "fcl": "P",
      "fcode": "PPL"
    },
    {
      "lng": "83.18358",
      "geonameId": 1278083,
      "countryCode": "IN",
      "name": "Azamgarh",
      "toponymName": "Azamgarh",
      "lat": "26.06832",
      "fcl": "P",
      "fcode": "PPLA2"
    },
    {
      "lng": "73.81491",
      "geonameId": 1263494,
      "countryCode": "IN",
      "name": "Mormugao",
      "toponymName": "Mormugao",
      "lat": "15.38914",
      "fcl": "P",
      "fcode": "PPL"
    },
    {
      "lng": "76.11996",
      "geonameId": 1263694,
      "countryCode": "IN",
      "name": "Manjeri",
      "toponymName": "Manjeri",
      "lat": "11.12018",
      "fcl": "P",
      "fcode": "PPL"
    },
    {
      "lng": "74.53462",
      "geonameId": 1264115,
      "countryCode": "IN",
      "name": "Malegaon",
      "toponymName": "Mālegaon",
      "lat": "20.54966",
      "fcl": "P",
      "fcode": "PPL"
    },
    {
      "lng": "76.08154",
      "geonameId": 1264154,
      "countryCode": "IN",
      "name": "Malappuram",
      "toponymName": "Malappuram",
      "lat": "11.04199",
      "fcl": "P",
      "fcode": "PPL"
    },
    {
      "lng": "88.44594",
      "geonameId": 1264543,
      "countryCode": "IN",
      "name": "Madhyamgram",
      "toponymName": "Madhyamgram",
      "lat": "22.68944",
      "fcl": "P",
      "fcode": "PPL"
    },
    {
      "lng": "81.13888",
      "geonameId": 1264637,
      "countryCode": "IN",
      "name": "Machilipatnam",
      "toponymName": "Machilīpatnam",
      "lat": "16.18747",
      "fcl": "P",
      "fcode": "PPL"
    },
    {
      "lng": "92.74218",
      "geonameId": 1264688,
      "countryCode": "IN",
      "name": "Lunglei",
      "toponymName": "Lunglei",
      "lat": "22.89247",
      "fcl": "P",
      "fcode": "PPL"
    },
    {
      "lng": "77.29023",
      "geonameId": 1264773,
      "countryCode": "IN",
      "name": "Loni",
      "toponymName": "Loni",
      "lat": "28.75143",
      "fcl": "P",
      "fcode": "PPL"
    },
    {
      "lng": "77.58402",
      "geonameId": 1264976,
      "countryCode": "IN",
      "name": "Leh",
      "toponymName": "Leh",
      "lat": "34.16504",
      "fcl": "P",
      "fcode": "PPL"
    },
    {
      "lng": "80.77935",
      "geonameId": 1265242,
      "countryCode": "IN",
      "name": "Lakhīmpur",
      "toponymName": "Lakhīmpur",
      "lat": "27.94822",
      "fcl": "P",
      "fcode": "PPL"
    },
    {
      "lng": "77.41667",
      "geonameId": 1265343,
      "countryCode": "IN",
      "name": "Leh Ladakh",
      "toponymName": "Leh",
      "lat": "34.33333",
      "fcl": "A",
      "fcode": "ADM2"
    },
    {
      "lng": "86.84372",
      "geonameId": 1265711,
      "countryCode": "IN",
      "name": "Kulti",
      "toponymName": "Kulti",
      "lat": "23.73166",
      "fcl": "P",
      "fcode": "PPL"
    },
    {
      "lng": "78.41376",
      "geonameId": 1265767,
      "countryCode": "IN",
      "name": "Kūkatpalli",
      "toponymName": "Kūkatpalli",
      "lat": "17.48486",
      "fcl": "P",
      "fcode": "PPL"
    },
    {
      "lng": "78.21382",
      "geonameId": 1265863,
      "countryCode": "IN",
      "name": "Krishnagiri",
      "toponymName": "Krishnagiri",
      "lat": "12.51921",
      "fcl": "P",
      "fcode": "PPL"
    },
    {
      "lng": "77.86989",
      "geonameId": 1265891,
      "countryCode": "IN",
      "name": "Kovilpatti",
      "toponymName": "Kovilpatti",
      "lat": "9.17167",
      "fcl": "P",
      "fcode": "PPL"
    },
    {
      "lng": "76.52132",
      "geonameId": 1265911,
      "countryCode": "IN",
      "name": "Kottayam",
      "toponymName": "Kottayam",
      "lat": "9.58692",
      "fcl": "P",
      "fcode": "PPL"
    },
    {
      "lng": "82.69633",
      "geonameId": 1266122,
      "countryCode": "IN",
      "name": "Korba",
      "toponymName": "Korba",
      "lat": "22.3458",
      "fcl": "P",
      "fcode": "PPL"
    },
    {
      "lng": "76.15478",
      "geonameId": 1266154,
      "countryCode": "IN",
      "name": "Koppal",
      "toponymName": "Koppal",
      "lat": "15.34522",
      "fcl": "P",
      "fcode": "PPL"
    },
    {
      "lng": "74.23167",
      "geonameId": 1266285,
      "countryCode": "IN",
      "name": "Kolhāpur",
      "toponymName": "Kolhāpur",
      "lat": "16.69563",
      "fcl": "P",
      "fcode": "PPL"
    },
    {
      "lng": "78.12999",
      "geonameId": 1266305,
      "countryCode": "IN",
      "name": "Kolār",
      "toponymName": "Kolār",
      "lat": "13.13768",
      "fcl": "P",
      "fcode": "PPL"
    },
    {
      "lng": "77.85535",
      "geonameId": 1266607,
      "countryCode": "IN",
      "name": "Khurja",
      "toponymName": "Khurja",
      "lat": "28.25382",
      "fcl": "P",
      "fcode": "PPL"
    },
    {
      "lng": "76.22196",
      "geonameId": 1267016,
      "countryCode": "IN",
      "name": "Khanna",
      "toponymName": "Khanna",
      "lat": "30.70547",
      "fcl": "P",
      "fcode": "PPL"
    },
    {
      "lng": "79.80436",
      "geonameId": 1259686,
      "countryCode": "IN",
      "name": "Pīlibhīt",
      "toponymName": "Pīlibhīt",
      "lat": "28.63124",
      "fcl": "P",
      "fcode": "PPL"
    },
    {
      "lng": "75.77387",
      "geonameId": 1259827,
      "countryCode": "IN",
      "name": "Phagwāra",
      "toponymName": "Phagwāra",
      "lat": "31.22452",
      "fcl": "P",
      "fcode": "PPL"
    },
    {
      "lng": "76.3922",
      "geonameId": 1260107,
      "countryCode": "IN",
      "name": "Patiāla",
      "toponymName": "Patiāla",
      "lat": "30.33625",
      "fcl": "P",
      "fcode": "PPL"
    },
    {
      "lng": "72.12963",
      "geonameId": 1260173,
      "countryCode": "IN",
      "name": "Pātan",
      "toponymName": "Pātan",
      "lat": "23.8507",
      "fcl": "P",
      "fcode": "PPL"
    },
    {
      "lng": "86.6085",
      "geonameId": 1260393,
      "countryCode": "IN",
      "name": "Paradip",
      "toponymName": "Parādīp Garh",
      "lat": "20.31641",
      "fcl": "P",
      "fcode": "PPL"
    },
    {
      "lng": "76.96825",
      "geonameId": 1260476,
      "countryCode": "IN",
      "name": "Panipat",
      "toponymName": "Pānīpat",
      "lat": "29.38747",
      "fcl": "P",
      "fcode": "PPL"
    },
    {
      "lng": "88.37404",
      "geonameId": 1260482,
      "countryCode": "IN",
      "name": "Pānihāti",
      "toponymName": "Pānihāti",
      "lat": "22.69089",
      "fcl": "P",
      "fcode": "PPL"
    },
    {
      "lng": "75.33098",
      "geonameId": 1260546,
      "countryCode": "IN",
      "name": "Pandharpur",
      "toponymName": "Pandharpur",
      "lat": "17.67924",
      "fcl": "P",
      "fcode": "PPL"
    },
    {
      "lng": "77.5209",
      "geonameId": 1260671,
      "countryCode": "IN",
      "name": "Palani",
      "toponymName": "Palani",
      "lat": "10.45034",
      "fcl": "P",
      "fcode": "PPL"
    },
    {
      "lng": "80.15025",
      "geonameId": 1260692,
      "countryCode": "IN",
      "name": "Pallāvaram",
      "toponymName": "Pallāvaram",
      "lat": "12.96796",
      "fcl": "P",
      "fcode": "PPL"
    },
    {
      "lng": "73.32335",
      "geonameId": 1260716,
      "countryCode": "IN",
      "name": "Pāli",
      "toponymName": "Pāli",
      "lat": "25.77276",
      "fcl": "P",
      "fcode": "PPL"
    },
    {
      "lng": "72.43827",
      "geonameId": 1260777,
      "countryCode": "IN",
      "name": "Pālanpur",
      "toponymName": "Pālanpur",
      "lat": "24.17128",
      "fcl": "P",
      "fcode": "PPL"
    },
    {
      "lng": "76.03889",
      "geonameId": 1261012,
      "countryCode": "IN",
      "name": "Osmanabad",
      "toponymName": "Osmanabad",
      "lat": "18.18158",
      "fcl": "P",
      "fcode": "PPLA3"
    },
    {
      "lng": "79.45334",
      "geonameId": 1261039,
      "countryCode": "IN",
      "name": "Orai",
      "toponymName": "Orai",
      "lat": "25.99023",
      "fcl": "P",
      "fcode": "PPL"
    },
    {
      "lng": "94.10357",
      "geonameId": 1261181,
      "countryCode": "IN",
      "name": "North Lakhimpur",
      "toponymName": "North Lakhimpur",
      "lat": "27.23517",
      "fcl": "P",
      "fcode": "PPL"
    },
    {
      "lng": "78.0988",
      "geonameId": 1261258,
      "countryCode": "IN",
      "name": "Nizāmābād",
      "toponymName": "Nizāmābād",
      "lat": "18.67154",
      "fcl": "P",
      "fcode": "PPL"
    },
    {
      "lng": "88.36861",
      "geonameId": 1261669,
      "countryCode": "IN",
      "name": "Nabadwip",
      "toponymName": "Navadwīp",
      "lat": "23.4067",
      "fcl": "P",
      "fcode": "PPL"
    },
    {
      "lng": "80.04927",
      "geonameId": 1261848,
      "countryCode": "IN",
      "name": "Narasaraopet",
      "toponymName": "Narasaraopet",
      "lat": "16.23488",
      "fcl": "P",
      "fcode": "PPL"
    },
    {
      "lng": "77.06799",
      "geonameId": 1261913,
      "countryCode": "IN",
      "name": "Nāngloi Jāt",
      "toponymName": "Nāngloi Jāt",
      "lat": "28.67957",
      "fcl": "P",
      "fcode": "PPL"
    },
    {
      "lng": "78.4836",
      "geonameId": 1261927,
      "countryCode": "IN",
      "name": "Nandyāl",
      "toponymName": "Nandyāl",
      "lat": "15.47799",
      "fcl": "P",
      "fcode": "PPL"
    },
    {
      "lng": "88.41521",
      "geonameId": 1262131,
      "countryCode": "IN",
      "name": "Naihāti",
      "toponymName": "Naihāti",
      "lat": "22.89396",
      "fcl": "P",
      "fcode": "PPL"
    },
    {
      "lng": "77.43227",
      "geonameId": 1262204,
      "countryCode": "IN",
      "name": "Nagercoil",
      "toponymName": "Nāgercoil",
      "lat": "8.17899",
      "fcl": "P",
      "fcode": "PPL"
    },
    {
      "lng": "75.41759",
      "geonameId": 1262209,
      "countryCode": "IN",
      "name": "Nagda",
      "toponymName": "Nagda",
      "lat": "23.45834",
      "fcl": "P",
      "fcode": "PPL"
    },
    {
      "lng": "79.84313",
      "geonameId": 1262260,
      "countryCode": "IN",
      "name": "Nagapattinam",
      "toponymName": "Negapatam",
      "lat": "10.76377",
      "fcl": "P",
      "fcode": "PPL"
    },
    {
      "lng": "72.86157",
      "geonameId": 1262292,
      "countryCode": "IN",
      "name": "Nadiād",
      "toponymName": "Nadiād",
      "lat": "22.69385",
      "fcl": "P",
      "fcode": "PPL"
    },
    {
      "lng": "85.39055",
      "geonameId": 1262330,
      "countryCode": "IN",
      "name": "Muzaffarpur",
      "toponymName": "Muzaffarpur",
      "lat": "26.12259",
      "fcl": "P",
      "fcode": "PPL"
    },
    {
      "lng": "77.70332",
      "geonameId": 1262332,
      "countryCode": "IN",
      "name": "Muzaffarnagar",
      "toponymName": "Muzaffarnagar",
      "lat": "29.47091",
      "fcl": "P",
      "fcode": "PPLA2"
    },
    {
      "lng": "78.07068",
      "geonameId": 1262374,
      "countryCode": "IN",
      "name": "Mussoorie",
      "toponymName": "Mussoorie",
      "lat": "30.45498",
      "fcl": "P",
      "fcode": "PPL"
    },
    {
      "lng": "80.39405",
      "geonameId": 1262395,
      "countryCode": "IN",
      "name": "Murwāra",
      "toponymName": "Murwāra",
      "lat": "23.83776",
      "fcl": "P",
      "fcode": "PPL"
    },
    {
      "lng": "77.06239",
      "geonameId": 1262463,
      "countryCode": "IN",
      "name": "Munnar",
      "toponymName": "Munnar",
      "lat": "10.08818",
      "fcl": "P",
      "fcode": "PPL"
    },
    {
      "lng": "86.47455",
      "geonameId": 1262482,
      "countryCode": "IN",
      "name": "Munger",
      "toponymName": "Monghyr",
      "lat": "25.37459",
      "fcl": "P",
      "fcode": "PPL"
    },
    {
      "lng": "84.91656",
      "geonameId": 1262710,
      "countryCode": "IN",
      "name": "Mothīhāri",
      "toponymName": "Mothīhāri",
      "lat": "26.64862",
      "fcl": "P",
      "fcode": "PPL"
    },
    {
      "lng": "82.56534",
      "geonameId": 1262995,
      "countryCode": "IN",
      "name": "Mirzāpur",
      "toponymName": "Mirzāpur",
      "lat": "25.1449",
      "fcl": "P",
      "fcode": "PPL"
    },
    {
      "lng": "79.56247",
      "geonameId": 1263012,
      "countryCode": "IN",
      "name": "Miryalaguda",
      "toponymName": "Miriālgūda",
      "lat": "16.8722",
      "fcl": "P",
      "fcode": "PPL"
    },
    {
      "lng": "76.93485",
      "geonameId": 1263103,
      "countryCode": "IN",
      "name": "Mettupalayam",
      "toponymName": "Mettupalayam",
      "lat": "11.29971",
      "fcl": "P",
      "fcode": "PPL"
    },
    {
      "lng": "87.32257",
      "geonameId": 1263220,
      "countryCode": "IN",
      "name": "Medinīpur",
      "toponymName": "Medinīpur",
      "lat": "22.42114",
      "fcl": "P",
      "fcode": "PPL"
    },
    {
      "lng": "78.26078",
      "geonameId": 1263230,
      "countryCode": "IN",
      "name": "Medak",
      "toponymName": "Medak",
      "lat": "18.04531",
      "fcl": "P",
      "fcode": "PPL"
    },
    {
      "lng": "79.655",
      "geonameId": 1263247,
      "countryCode": "IN",
      "name": "Mayiladuthurai",
      "toponymName": "Mayiladuthurai",
      "lat": "11.10354",
      "fcl": "P",
      "fcode": "PPLA2"
    },
    {
      "lng": "84.35609",
      "geonameId": 1255927,
      "countryCode": "IN",
      "name": "Siwān",
      "toponymName": "Siwān",
      "lat": "26.22096",
      "fcl": "P",
      "fcode": "PPL"
    },
    {
      "lng": "77.79797",
      "geonameId": 1255947,
      "countryCode": "IN",
      "name": "Sivakasi",
      "toponymName": "Sivakasi",
      "lat": "9.44999",
      "fcl": "P",
      "fcode": "PPL"
    },
    {
      "lng": "75.02898",
      "geonameId": 1256052,
      "countryCode": "IN",
      "name": "Sirsa",
      "toponymName": "Sirsa",
      "lat": "29.53489",
      "fcl": "P",
      "fcode": "PPL"
    },
    {
      "lng": "75.13996",
      "geonameId": 1256320,
      "countryCode": "IN",
      "name": "Sīkar",
      "toponymName": "Sīkar",
      "lat": "27.61206",
      "fcl": "P",
      "fcode": "PPL"
    },
    {
      "lng": "88.34222",
      "geonameId": 1256422,
      "countryCode": "IN",
      "name": "Serampore",
      "toponymName": "Shrīrāmpur",
      "lat": "22.75278",
      "fcl": "P",
      "fcode": "PPL"
    },
    {
      "lng": "77.66223",
      "geonameId": 1256451,
      "countryCode": "IN",
      "name": "Shivpuri",
      "toponymName": "Shivpuri",
      "lat": "25.42378",
      "fcl": "P",
      "fcode": "PPL"
    },
    {
      "lng": "79.90918",
      "geonameId": 1256728,
      "countryCode": "IN",
      "name": "Shahjahanpur",
      "toponymName": "Shāhjānpur",
      "lat": "27.88165",
      "fcl": "P",
      "fcode": "PPL"
    },
    {
      "lng": "81.3619",
      "geonameId": 1256739,
      "countryCode": "IN",
      "name": "Shahdol",
      "toponymName": "Shahdol",
      "lat": "23.29356",
      "fcl": "P",
      "fcode": "PPL"
    },
    {
      "lng": "79.55037",
      "geonameId": 1256826,
      "countryCode": "IN",
      "name": "Seoni",
      "toponymName": "Seoni",
      "lat": "22.08503",
      "fcl": "P",
      "fcode": "PPL"
    },
    {
      "lng": "76.34408",
      "geonameId": 1256949,
      "countryCode": "IN",
      "name": "Sawai Madhopur",
      "toponymName": "Sawāi Mādhopur",
      "lat": "26.02301",
      "fcl": "P",
      "fcode": "PPL"
    },
    {
      "lng": "80.82719",
      "geonameId": 1257022,
      "countryCode": "IN",
      "name": "Satna",
      "toponymName": "Satna",
      "lat": "24.57726",
      "fcl": "P",
      "fcode": "PPL"
    },
    {
      "lng": "73.99333",
      "geonameId": 1257055,
      "countryCode": "IN",
      "name": "Satara",
      "toponymName": "Satara",
      "lat": "17.68589",
      "fcl": "P",
      "fcode": "PPL"
    },
    {
      "lng": "78.56959",
      "geonameId": 1257540,
      "countryCode": "IN",
      "name": "Sambhal",
      "toponymName": "Sambhal",
      "lat": "28.58498",
      "fcl": "P",
      "fcode": "PPLA2"
    },
    {
      "lng": "77.54522",
      "geonameId": 1257806,
      "countryCode": "IN",
      "name": "Sahāranpur",
      "toponymName": "Sahāranpur",
      "lat": "29.9679",
      "fcl": "P",
      "fcode": "PPL"
    },
    {
      "lng": "78.73874",
      "geonameId": 1257845,
      "countryCode": "IN",
      "name": "Saugor",
      "toponymName": "Saugor",
      "lat": "23.83877",
      "fcl": "P",
      "fcode": "PPL"
    },
    {
      "lng": "78.27539",
      "geonameId": 1258109,
      "countryCode": "IN",
      "name": "Robertsonpet",
      "toponymName": "Robertsonpet",
      "lat": "12.95629",
      "fcl": "P",
      "fcode": "PPL"
    },
    {
      "lng": "88.34563",
      "geonameId": 1258126,
      "countryCode": "IN",
      "name": "Rishra",
      "toponymName": "Rishra",
      "lat": "22.72394",
      "fcl": "P",
      "fcode": "PPL"
    },
    {
      "lng": "76.6183",
      "geonameId": 1258178,
      "countryCode": "IN",
      "name": "Rewāri",
      "toponymName": "Rewāri",
      "lat": "28.199",
      "fcl": "P",
      "fcode": "PPL"
    },
    {
      "lng": "73.31022",
      "geonameId": 1258338,
      "countryCode": "IN",
      "name": "Ratnagiri",
      "toponymName": "Ratnagiri",
      "lat": "16.99154",
      "fcl": "P",
      "fcode": "PPLA3"
    },
    {
      "lng": "75.04032",
      "geonameId": 1258342,
      "countryCode": "IN",
      "name": "Ratlām",
      "toponymName": "Ratlām",
      "lat": "23.33033",
      "fcl": "P",
      "fcode": "PPL"
    },
    {
      "lng": "87.13061",
      "geonameId": 1258470,
      "countryCode": "IN",
      "name": "Raniganj",
      "toponymName": "Rānīganj",
      "lat": "23.6164",
      "fcl": "P",
      "fcode": "PPL"
    },
    {
      "lng": "79.02699",
      "geonameId": 1258599,
      "countryCode": "IN",
      "name": "Rāmpur",
      "toponymName": "Rāmpur",
      "lat": "28.81014",
      "fcl": "P",
      "fcode": "PPL"
    },
    {
      "lng": "79.45206",
      "geonameId": 1258662,
      "countryCode": "IN",
      "name": "Rāmgundam",
      "toponymName": "Rāmgundam",
      "lat": "18.80084",
      "fcl": "P",
      "fcode": "PPL"
    },
    {
      "lng": "78.83077",
      "geonameId": 1258740,
      "countryCode": "IN",
      "name": "Ramanathapuram",
      "toponymName": "Ramanathapuram",
      "lat": "9.37158",
      "fcl": "P",
      "fcode": "PPL"
    },
    {
      "lng": "77.55335",
      "geonameId": 1258916,
      "countryCode": "IN",
      "name": "Rajapalayam",
      "toponymName": "Rajapalaiyam",
      "lat": "9.45296",
      "fcl": "P",
      "fcode": "PPL"
    },
    {
      "lng": "88.12449",
      "geonameId": 1259009,
      "countryCode": "IN",
      "name": "Rāiganj",
      "toponymName": "Rāiganj",
      "lat": "25.61281",
      "fcl": "P",
      "fcode": "PPL"
    },
    {
      "lng": "81.23315",
      "geonameId": 1259064,
      "countryCode": "IN",
      "name": "Raebareli",
      "toponymName": "Raebareli",
      "lat": "26.2309",
      "fcl": "P",
      "fcode": "PPL"
    },
    {
      "lng": "86.36303",
      "geonameId": 1259163,
      "countryCode": "IN",
      "name": "Puruliya",
      "toponymName": "Puruliya",
      "lat": "23.33062",
      "fcl": "P",
      "fcode": "PPL"
    },
    {
      "lng": "78.54813",
      "geonameId": 1259312,
      "countryCode": "IN",
      "name": "Proddatūr",
      "toponymName": "Proddatūr",
      "lat": "14.7502",
      "fcl": "P",
      "fcode": "PPL"
    },
    {
      "lng": "75.92523",
      "geonameId": 1259411,
      "countryCode": "IN",
      "name": "Ponnāni",
      "toponymName": "Ponnāni",
      "lat": "10.76695",
      "fcl": "P",
      "fcode": "PPL"
    },
    {
      "lng": "77.0085",
      "geonameId": 1259440,
      "countryCode": "IN",
      "name": "Pollachi",
      "toponymName": "Pollachi",
      "lat": "10.65825",
      "fcl": "P",
      "fcode": "PPL"
    },
    {
      "lng": "80.99555",
      "geonameId": 1270801,
      "countryCode": "IN",
      "name": "Gudivāda",
      "toponymName": "Gudivāda",
      "lat": "16.43547",
      "fcl": "P",
      "fcode": "PPL"
    },
    {
      "lng": "88.8007",
      "geonameId": 1270896,
      "countryCode": "IN",
      "name": "Gosāba",
      "toponymName": "Gosāba",
      "lat": "22.16547",
      "fcl": "P",
      "fcode": "PPL"
    },
    {
      "lng": "75.67206",
      "geonameId": 1270926,
      "countryCode": "IN",
      "name": "Gorakhpur",
      "toponymName": "Gorakhpur",
      "lat": "29.44768",
      "fcl": "P",
      "fcode": "PPL"
    },
    {
      "lng": "70.80255",
      "geonameId": 1270994,
      "countryCode": "IN",
      "name": "Gondal",
      "toponymName": "Gondal",
      "lat": "21.96074",
      "fcl": "P",
      "fcode": "PPL"
    },
    {
      "lng": "81.95332",
      "geonameId": 1270996,
      "countryCode": "IN",
      "name": "Gondā City",
      "toponymName": "Gondā City",
      "lat": "27.13181",
      "fcl": "P",
      "fcode": "PPL"
    },
    {
      "lng": "72.87",
      "geonameId": 1271155,
      "countryCode": "IN",
      "name": "Daman and Diu",
      "toponymName": "Union Territory of Damān and Diu",
      "lat": "20.4",
      "fcl": "A",
      "fcode": "ADM1H"
    },
    {
      "lng": "74.08333",
      "geonameId": 1271157,
      "countryCode": "IN",
      "name": "Goa",
      "toponymName": "Goa",
      "lat": "15.33333",
      "fcl": "A",
      "fcode": "ADM1"
    },
    {
      "lng": "83.58526",
      "geonameId": 1271306,
      "countryCode": "IN",
      "name": "Ghazīpur",
      "toponymName": "Ghazīpur",
      "lat": "25.58333",
      "fcl": "P",
      "fcode": "PPL"
    },
    {
      "lng": "85.00385",
      "geonameId": 1271439,
      "countryCode": "IN",
      "name": "Gaya",
      "toponymName": "Gaya",
      "lat": "24.79686",
      "fcl": "P",
      "fcode": "PPL"
    },
    {
      "lng": "91.58594",
      "geonameId": 1271477,
      "countryCode": "IN",
      "name": "Guwāhāti International Airport",
      "toponymName": "Lokpriya Gopinath Bordoloi International Airport",
      "lat": "26.10609",
      "fcl": "S",
      "fcode": "AIRP"
    },
    {
      "lng": "76.52933",
      "geonameId": 1271662,
      "countryCode": "IN",
      "name": "Gangavati",
      "toponymName": "Gangāwati",
      "lat": "15.4313",
      "fcl": "P",
      "fcode": "PPL"
    },
    {
      "lng": "76.71744",
      "geonameId": 1271675,
      "countryCode": "IN",
      "name": "Gangāpur",
      "toponymName": "Gangāpur",
      "lat": "26.47249",
      "fcl": "P",
      "fcode": "PPL"
    },
    {
      "lng": "74.61311",
      "geonameId": 1271883,
      "countryCode": "IN",
      "name": "Firozpur",
      "toponymName": "Ferozepore",
      "lat": "30.92574",
      "fcl": "P",
      "fcode": "PPL"
    },
    {
      "lng": "78.39781",
      "geonameId": 1271885,
      "countryCode": "IN",
      "name": "Firozabad",
      "toponymName": "Fīrozābād",
      "lat": "27.15092",
      "fcl": "P",
      "fcode": "PPL"
    },
    {
      "lng": "80.81266",
      "geonameId": 1271912,
      "countryCode": "IN",
      "name": "Fatehpur",
      "toponymName": "Fatehpur",
      "lat": "25.92774",
      "fcl": "P",
      "fcode": "PPL"
    },
    {
      "lng": "79.5793",
      "geonameId": 1271942,
      "countryCode": "IN",
      "name": "Farrukhābād",
      "toponymName": "Farrukhābād",
      "lat": "27.39134",
      "fcl": "P",
      "fcode": "PPL"
    },
    {
      "lng": "82.15018",
      "geonameId": 1271976,
      "countryCode": "IN",
      "name": "Faizabad",
      "toponymName": "Fyzābād",
      "lat": "26.77549",
      "fcl": "P",
      "fcode": "PPL"
    },
    {
      "lng": "79.02133",
      "geonameId": 1271987,
      "countryCode": "IN",
      "name": "Etāwah",
      "toponymName": "Etāwah",
      "lat": "26.77615",
      "fcl": "P",
      "fcode": "PPL"
    },
    {
      "lng": "81.10437",
      "geonameId": 1272051,
      "countryCode": "IN",
      "name": "Eluru",
      "toponymName": "Ellore",
      "lat": "16.71311",
      "fcl": "P",
      "fcode": "PPL"
    },
    {
      "lng": "87.24855",
      "geonameId": 1272237,
      "countryCode": "IN",
      "name": "Dumka",
      "toponymName": "Dumka",
      "lat": "24.26778",
      "fcl": "P",
      "fcode": "PPL"
    },
    {
      "lng": "70.98224",
      "geonameId": 1272502,
      "countryCode": "IN",
      "name": "Diu",
      "toponymName": "Diu",
      "lat": "20.71405",
      "fcl": "P",
      "fcode": "PPL"
    },
    {
      "lng": "93.7217",
      "geonameId": 1272552,
      "countryCode": "IN",
      "name": "Dimāpur",
      "toponymName": "Dimāpur",
      "lat": "25.91174",
      "fcl": "P",
      "fcode": "PPL"
    },
    {
      "lng": "74.77737",
      "geonameId": 1272691,
      "countryCode": "IN",
      "name": "Dhule",
      "toponymName": "Dhūlia",
      "lat": "20.9013",
      "fcl": "P",
      "fcode": "PPLA2"
    },
    {
      "lng": "77.87968",
      "geonameId": 1272805,
      "countryCode": "IN",
      "name": "Dhaulpur",
      "toponymName": "Dhaulpur",
      "lat": "26.69286",
      "fcl": "P",
      "fcode": "PPL"
    },
    {
      "lng": "77.72035",
      "geonameId": 1272842,
      "countryCode": "IN",
      "name": "Dharmavaram",
      "toponymName": "Dharmavaram",
      "lat": "14.41435",
      "fcl": "P",
      "fcode": "PPL"
    },
    {
      "lng": "78.15794",
      "geonameId": 1272847,
      "countryCode": "IN",
      "name": "Dharmapuri",
      "toponymName": "Dharmapuri",
      "lat": "12.1277",
      "fcl": "P",
      "fcode": "PPL"
    },
    {
      "lng": "77.1",
      "geonameId": 1273293,
      "countryCode": "IN",
      "name": "Delhi",
      "toponymName": "National Capital Territory of Delhi",
      "lat": "28.6667",
      "fcl": "A",
      "fcode": "ADM1"
    },
    {
      "lng": "84.18217",
      "geonameId": 1273309,
      "countryCode": "IN",
      "name": "Dehri",
      "toponymName": "Dehri",
      "lat": "24.90247",
      "fcl": "P",
      "fcode": "PPL"
    },
    {
      "lng": "75.92694",
      "geonameId": 1273368,
      "countryCode": "IN",
      "name": "Davangere",
      "toponymName": "Davangere",
      "lat": "14.46693",
      "fcl": "P",
      "fcode": "PPL"
    },
    {
      "lng": "76.33584",
      "geonameId": 1273369,
      "countryCode": "IN",
      "name": "Dausa",
      "toponymName": "Dausa",
      "lat": "26.89",
      "fcl": "P",
      "fcode": "PPL"
    },
    {
      "lng": "85.04794",
      "geonameId": 1273581,
      "countryCode": "IN",
      "name": "Dinapore",
      "toponymName": "Dinapore",
      "lat": "25.63705",
      "fcl": "P",
      "fcode": "PPL"
    },
    {
      "lng": "84.0658",
      "geonameId": 1273626,
      "countryCode": "IN",
      "name": "Medininagar",
      "toponymName": "Daltonganj",
      "lat": "24.03971",
      "fcl": "P",
      "fcode": "PPL"
    },
    {
      "lng": "73.03333",
      "geonameId": 1273726,
      "countryCode": "IN",
      "name": "Dadra and Nagar Haveli",
      "toponymName": "Union Territory of Dādra and Nagar Haveli",
      "lat": "20.16667",
      "fcl": "A",
      "fcode": "ADM1H"
    },
    {
      "lng": "78.82346",
      "geonameId": 1273800,
      "countryCode": "IN",
      "name": "Kadapa",
      "toponymName": "Cuddapah",
      "lat": "14.47995",
      "fcl": "P",
      "fcode": "PPL"
    },
    {
      "lng": "74.96718",
      "geonameId": 1273892,
      "countryCode": "IN",
      "name": "Chūru",
      "toponymName": "Chūru",
      "lat": "28.30415",
      "fcl": "P",
      "fcode": "PPL"
    },
    {
      "lng": "74.62403",
      "geonameId": 1274040,
      "countryCode": "IN",
      "name": "Chittaurgarh",
      "toponymName": "Chittaurgarh",
      "lat": "24.88963",
      "fcl": "P",
      "fcode": "PPL"
    },
    {
      "lng": "75.774",
      "geonameId": 1274220,
      "countryCode": "IN",
      "name": "Chikmagalūr",
      "toponymName": "Chikmagalūr",
      "lat": "13.32231",
      "fcl": "P",
      "fcode": "PPL"
    },
    {
      "lng": "79.69144",
      "geonameId": 1274256,
      "countryCode": "IN",
      "name": "Chidambaram",
      "toponymName": "Chidambaram",
      "lat": "11.39933",
      "fcl": "P",
      "fcode": "PPL"
    },
    {
      "lng": "72.64203",
      "geonameId": 1267390,
      "countryCode": "IN",
      "name": "Kavaratti",
      "toponymName": "Kavaratti",
      "lat": "10.56688",
      "fcl": "P",
      "fcode": "PPLA"
    },
    {
      "lng": "74.12972",
      "geonameId": 1267635,
      "countryCode": "IN",
      "name": "Karwar",
      "toponymName": "Karwar",
      "lat": "14.81361",
      "fcl": "P",
      "fcode": "PPL"
    },
    {
      "lng": "78.08095",
      "geonameId": 1267648,
      "countryCode": "IN",
      "name": "Karur",
      "toponymName": "Karur",
      "lat": "10.95771",
      "fcl": "P",
      "fcode": "PPL"
    },
    {
      "lng": "77.19072",
      "geonameId": 1267696,
      "countryCode": "IN",
      "name": "Karol Bāgh",
      "toponymName": "Karol Bāgh",
      "lat": "28.65136",
      "fcl": "P",
      "fcode": "PPLX"
    },
    {
      "lng": "79.12856",
      "geonameId": 1267755,
      "countryCode": "IN",
      "name": "Karīmnagar",
      "toponymName": "Karīmnagar",
      "lat": "18.43915",
      "fcl": "P",
      "fcode": "PPLA2"
    },
    {
      "lng": "76.12622",
      "geonameId": 1267776,
      "countryCode": "IN",
      "name": "Kargil",
      "toponymName": "Kargil",
      "lat": "34.55765",
      "fcl": "P",
      "fcode": "PPLA"
    },
    {
      "lng": "77.02755",
      "geonameId": 1267819,
      "countryCode": "IN",
      "name": "Karauli",
      "toponymName": "Karauli",
      "lat": "26.49831",
      "fcl": "P",
      "fcode": "PPL"
    },
    {
      "lng": "75.38105",
      "geonameId": 1267911,
      "countryCode": "IN",
      "name": "Kapurthala Town",
      "toponymName": "Kapūrthala",
      "lat": "31.38011",
      "fcl": "P",
      "fcode": "PPL"
    },
    {
      "lng": "88.37472",
      "geonameId": 1268257,
      "countryCode": "IN",
      "name": "Kāmārhāti",
      "toponymName": "Kāmārhāti",
      "lat": "22.67111",
      "fcl": "P",
      "fcode": "PPL"
    },
    {
      "lng": "82.23809",
      "geonameId": 1268561,
      "countryCode": "IN",
      "name": "Kākināda",
      "toponymName": "Kākināda",
      "lat": "16.96036",
      "fcl": "P",
      "fcode": "PPL"
    },
    {
      "lng": "88.42849",
      "geonameId": 1268715,
      "countryCode": "IN",
      "name": "Kanchrapara",
      "toponymName": "Kānchrāpāra",
      "lat": "22.95998",
      "fcl": "P",
      "fcode": "PPL"
    },
    {
      "lng": "70",
      "geonameId": 1268731,
      "countryCode": "IN",
      "name": "Kutch",
      "toponymName": "Kutch",
      "lat": "23.58333",
      "fcl": "A",
      "fcode": "ADM2"
    },
    {
      "lng": "88.11636",
      "geonameId": 1268737,
      "countryCode": "IN",
      "name": "Kabru",
      "toponymName": "Kabru",
      "lat": "27.61617",
      "fcl": "T",
      "fcode": "MT"
    },
    {
      "lng": "70.45981",
      "geonameId": 1268773,
      "countryCode": "IN",
      "name": "Jūnāgadh",
      "toponymName": "Jūnāgadh",
      "lat": "21.51966",
      "fcl": "P",
      "fcode": "PPL"
    },
    {
      "lng": "72.75",
      "geonameId": 1268867,
      "countryCode": "IN",
      "name": "Jodhpur",
      "toponymName": "Jodhpur",
      "lat": "26.75",
      "fcl": "A",
      "fcode": "ADM2"
    },
    {
      "lng": "76.31502",
      "geonameId": 1268907,
      "countryCode": "IN",
      "name": "Jīnd",
      "toponymName": "Jīnd",
      "lat": "29.31577",
      "fcl": "P",
      "fcode": "PPL"
    },
    {
      "lng": "75.39797",
      "geonameId": 1268936,
      "countryCode": "IN",
      "name": "Jhunjhunūn",
      "toponymName": "Jhunjhunūn",
      "lat": "28.12559",
      "fcl": "P",
      "fcode": "PPL"
    },
    {
      "lng": "84.00698",
      "geonameId": 1268977,
      "countryCode": "IN",
      "name": "Jharsuguda",
      "toponymName": "Jharsuguda",
      "lat": "21.85531",
      "fcl": "P",
      "fcode": "PPLA2"
    },
    {
      "lng": "78.57994",
      "geonameId": 1269006,
      "countryCode": "IN",
      "name": "Jhānsi",
      "toponymName": "Jhānsi",
      "lat": "25.45887",
      "fcl": "P",
      "fcode": "PPL"
    },
    {
      "lng": "70.62347",
      "geonameId": 1269065,
      "countryCode": "IN",
      "name": "Jetpur",
      "toponymName": "Jetpur",
      "lat": "21.75482",
      "fcl": "P",
      "fcode": "PPL"
    },
    {
      "lng": "88.41836",
      "geonameId": 1269094,
      "countryCode": "IN",
      "name": "Jaynagar Majilpur",
      "toponymName": "Jaynagar Majilpur",
      "lat": "22.17449",
      "fcl": "P",
      "fcode": "PPL"
    },
    {
      "lng": "87.07872",
      "geonameId": 1269280,
      "countryCode": "IN",
      "name": "Jamuria",
      "toponymName": "Jāmuria",
      "lat": "23.70468",
      "fcl": "P",
      "fcode": "PPL"
    },
    {
      "lng": "86.48888",
      "geonameId": 1269374,
      "countryCode": "IN",
      "name": "Jamālpur",
      "toponymName": "Jamālpur",
      "lat": "25.31258",
      "fcl": "P",
      "fcode": "PPL"
    },